[
  {
    "name": "Bicol International Airport",
    "type": "airport",
    "lat": 13.113348,
    "lon": 123.678432
  },
  {
    "name": "Bulan Airport",
    "type": "airport",
    "lat": 12.683478,
    "lon": 123.877389
  },
  {
    "name": "Catarman Airport",
    "type": "airport",
    "lat": 12.501687,
    "lon": 124.635187
  },
  {
    "name": "Daet Airport",
    "type": "airport",
    "lat": 14.129936,
    "lon": 122.98057
  },
  {
    "name": "Legazpi Airport",
    "type": "airport",
    "lat": 13.157246,
    "lon": 123.734643
  },
  {
    "name": "Naga Airport",
    "type": "airport",
    "lat": 13.584223,
    "lon": 123.270657
  },
  {
    "name": "Sorsogon Airport",
    "type": "airport",
    "lat": 13.007236,
    "lon": 124.025995
  },
  {
    "name": "UPMC Air strip",
    "type": "airport",
    "lat": 14.28816,
    "lon": 122.801041
  },
  {
    "name": "Virac Airport",
    "type": "airport",
    "lat": 13.576427,
    "lon": 124.204538
  },
  {
    "name": "101 Shooping Center",
    "type": "bank",
    "lat": 13.619089,
    "lon": 123.183897
  },
  {
    "name": "AUB Bank",
    "type": "bank",
    "lat": 12.499241,
    "lon": 124.641036
  },
  {
    "name": "Aboitiz Bank",
    "type": "bank",
    "lat": 12.498217,
    "lon": 124.641491
  },
  {
    "name": "AgriBank",
    "type": "bank",
    "lat": 13.35619,
    "lon": 123.726949
  },
  {
    "name": "Agribank",
    "type": "bank",
    "lat": 13.361978,
    "lon": 123.728776
  },
  {
    "name": "Asia United Bank",
    "type": "bank",
    "lat": 13.146053,
    "lon": 123.75049
  },
  {
    "name": "Asia United Bank",
    "type": "bank",
    "lat": 13.621002,
    "lon": 123.18383
  },
  {
    "name": "Asia United Bank (AUB)",
    "type": "bank",
    "lat": 13.625393,
    "lon": 123.186073
  },
  {
    "name": "BDO",
    "type": "bank",
    "lat": 13.624711,
    "lon": 123.18646
  },
  {
    "name": "BDO",
    "type": "bank",
    "lat": 13.622433,
    "lon": 123.18446
  },
  {
    "name": "BDO",
    "type": "bank",
    "lat": 12.972077,
    "lon": 124.007522
  },
  {
    "name": "BDO",
    "type": "bank",
    "lat": 13.621052,
    "lon": 123.190175
  },
  {
    "name": "BDO",
    "type": "bank",
    "lat": 13.553036,
    "lon": 123.276205
  },
  {
    "name": "BDO",
    "type": "bank",
    "lat": 13.356983,
    "lon": 123.730028
  },
  {
    "name": "BDO",
    "type": "bank",
    "lat": 14.117129,
    "lon": 122.9532
  },
  {
    "name": "BDO",
    "type": "bank",
    "lat": 13.144668,
    "lon": 123.752946
  },
  {
    "name": "BDO",
    "type": "bank",
    "lat": 13.148113,
    "lon": 123.712782
  },
  {
    "name": "BDO",
    "type": "bank",
    "lat": 13.138962,
    "lon": 123.732731
  },
  {
    "name": "BDO",
    "type": "bank",
    "lat": 13.62191,
    "lon": 123.214861
  },
  {
    "name": "BDO",
    "type": "bank",
    "lat": 13.420115,
    "lon": 123.41182
  },
  {
    "name": "BDO",
    "type": "bank",
    "lat": 13.623496,
    "lon": 123.184402
  },
  {
    "name": "BDO",
    "type": "bank",
    "lat": 13.621843,
    "lon": 123.201134
  },
  {
    "name": "BDO",
    "type": "bank",
    "lat": 13.626019,
    "lon": 123.186596
  },
  {
    "name": "BDO",
    "type": "bank",
    "lat": 13.621745,
    "lon": 123.190183
  },
  {
    "name": "BDO",
    "type": "bank",
    "lat": 13.28923,
    "lon": 123.490443
  },
  {
    "name": "BDO",
    "type": "bank",
    "lat": 13.707658,
    "lon": 123.214874
  },
  {
    "name": "BDO",
    "type": "bank",
    "lat": 13.616375,
    "lon": 123.195244
  },
  {
    "name": "BDO",
    "type": "bank",
    "lat": 13.622217,
    "lon": 123.194007
  },
  {
    "name": "BDO",
    "type": "bank",
    "lat": 13.237407,
    "lon": 123.548899
  },
  {
    "name": "BDO",
    "type": "bank",
    "lat": 13.359982,
    "lon": 123.724751
  },
  {
    "name": "BDO",
    "type": "bank",
    "lat": 13.815734,
    "lon": 123.326242
  },
  {
    "name": "BDO",
    "type": "bank",
    "lat": 12.667573,
    "lon": 123.87453
  },
  {
    "name": "BDO",
    "type": "bank",
    "lat": 13.580291,
    "lon": 124.23086
  },
  {
    "name": "BDO",
    "type": "bank",
    "lat": 14.115496,
    "lon": 122.954978
  },
  {
    "name": "BDO",
    "type": "bank",
    "lat": 13.146858,
    "lon": 123.752831
  },
  {
    "name": "BDO (Panganiban Drive)",
    "type": "bank",
    "lat": 13.622124,
    "lon": 123.194048
  },
  {
    "name": "BDO - Catarman",
    "type": "bank",
    "lat": 12.498688,
    "lon": 124.641387
  },
  {
    "name": "BDO Bank",
    "type": "bank",
    "lat": 12.498699,
    "lon": 124.641406
  },
  {
    "name": "BDO Camarines Sur - Nabua",
    "type": "bank",
    "lat": 13.408469,
    "lon": 123.37269
  },
  {
    "name": "BDO Network Bank",
    "type": "bank",
    "lat": 13.55917,
    "lon": 123.375814
  },
  {
    "name": "BDO Network Bank",
    "type": "bank",
    "lat": 13.632121,
    "lon": 123.497907
  },
  {
    "name": "BDO Network Bank Camarines Norte - Basud Branch",
    "type": "bank",
    "lat": 14.069922,
    "lon": 122.962252
  },
  {
    "name": "BPI",
    "type": "bank",
    "lat": 13.623947,
    "lon": 123.186022
  },
  {
    "name": "BPI",
    "type": "bank",
    "lat": 13.62134,
    "lon": 123.185235
  },
  {
    "name": "BPI",
    "type": "bank",
    "lat": 13.630728,
    "lon": 123.19713
  },
  {
    "name": "BPI",
    "type": "bank",
    "lat": 14.114501,
    "lon": 122.956275
  },
  {
    "name": "BPI",
    "type": "bank",
    "lat": 13.138725,
    "lon": 123.732732
  },
  {
    "name": "BPI",
    "type": "bank",
    "lat": 13.356182,
    "lon": 123.730478
  },
  {
    "name": "BPI",
    "type": "bank",
    "lat": 13.622822,
    "lon": 123.184731
  },
  {
    "name": "BPI",
    "type": "bank",
    "lat": 13.419962,
    "lon": 123.411963
  },
  {
    "name": "BPI",
    "type": "bank",
    "lat": 13.621761,
    "lon": 123.197288
  },
  {
    "name": "BPI",
    "type": "bank",
    "lat": 12.969189,
    "lon": 124.004764
  },
  {
    "name": "BPI",
    "type": "bank",
    "lat": 12.970062,
    "lon": 124.003257
  },
  {
    "name": "BPI",
    "type": "bank",
    "lat": 13.147314,
    "lon": 123.753143
  },
  {
    "name": "BanKo",
    "type": "bank",
    "lat": 13.357724,
    "lon": 123.731588
  },
  {
    "name": "Banco Filipino",
    "type": "bank",
    "lat": 13.150547,
    "lon": 123.752809
  },
  {
    "name": "Banco San Vicente",
    "type": "bank",
    "lat": 14.153976,
    "lon": 122.829788
  },
  {
    "name": "Banco San Vicente",
    "type": "bank",
    "lat": 14.118311,
    "lon": 122.951461
  },
  {
    "name": "Banco de Oro",
    "type": "bank",
    "lat": 13.579349,
    "lon": 124.228345
  },
  {
    "name": "Bangko Sentral ng Pilipinas",
    "type": "bank",
    "lat": 13.616212,
    "lon": 123.192079
  },
  {
    "name": "Bank of Commerce",
    "type": "bank",
    "lat": 13.146166,
    "lon": 123.749408
  },
  {
    "name": "Bank of the Philippine Island",
    "type": "bank",
    "lat": 12.49938,
    "lon": 124.637942
  },
  {
    "name": "Bank of the Philippine Islands",
    "type": "bank",
    "lat": 12.49941,
    "lon": 124.637977
  },
  {
    "name": "CARD Bank - Iriga",
    "type": "bank",
    "lat": 13.443241,
    "lon": 123.400102
  },
  {
    "name": "CARD Bank, Inc. - Monreal-1",
    "type": "bank",
    "lat": 12.643638,
    "lon": 123.663982
  },
  {
    "name": "CARD Inc.",
    "type": "bank",
    "lat": 12.566963,
    "lon": 123.734261
  },
  {
    "name": "Cagsawa Rural Bank",
    "type": "bank",
    "lat": 13.148799,
    "lon": 123.712526
  },
  {
    "name": "Camalig Bank",
    "type": "bank",
    "lat": 12.97126,
    "lon": 123.994511
  },
  {
    "name": "Camalig Bank",
    "type": "bank",
    "lat": 13.149483,
    "lon": 123.753109
  },
  {
    "name": "Camalig Bank",
    "type": "bank",
    "lat": 13.180579,
    "lon": 123.655354
  },
  {
    "name": "Camalig Bank",
    "type": "bank",
    "lat": 13.138346,
    "lon": 123.739378
  },
  {
    "name": "Camalig Bank",
    "type": "bank",
    "lat": 13.557638,
    "lon": 123.371746
  },
  {
    "name": "Card Bank",
    "type": "bank",
    "lat": 14.112945,
    "lon": 122.954537
  },
  {
    "name": "Card Bank",
    "type": "bank",
    "lat": 13.626339,
    "lon": 123.187551
  },
  {
    "name": "Card Bank",
    "type": "bank",
    "lat": 13.3656,
    "lon": 123.72578
  },
  {
    "name": "Card Bank",
    "type": "bank",
    "lat": 13.553487,
    "lon": 123.275942
  },
  {
    "name": "Card Bank, Inc.",
    "type": "bank",
    "lat": 13.770154,
    "lon": 122.977208
  },
  {
    "name": "Card Bank, Inc.",
    "type": "bank",
    "lat": 12.970265,
    "lon": 123.997874
  },
  {
    "name": "China Bank",
    "type": "bank",
    "lat": 13.357795,
    "lon": 123.729817
  },
  {
    "name": "China Bank",
    "type": "bank",
    "lat": 13.146368,
    "lon": 123.751061
  },
  {
    "name": "China Bank",
    "type": "bank",
    "lat": 12.970057,
    "lon": 124.006252
  },
  {
    "name": "China Bank",
    "type": "bank",
    "lat": 13.420645,
    "lon": 123.410268
  },
  {
    "name": "China Bank Savings",
    "type": "bank",
    "lat": 13.14832,
    "lon": 123.71189
  },
  {
    "name": "Chinabank",
    "type": "bank",
    "lat": 12.499129,
    "lon": 124.639175
  },
  {
    "name": "Chinabank",
    "type": "bank",
    "lat": 14.117842,
    "lon": 122.952795
  },
  {
    "name": "Chinabank",
    "type": "bank",
    "lat": 13.623529,
    "lon": 123.185772
  },
  {
    "name": "Chinabank",
    "type": "bank",
    "lat": 13.139155,
    "lon": 123.732316
  },
  {
    "name": "City Savings",
    "type": "bank",
    "lat": 13.146028,
    "lon": 123.750477
  },
  {
    "name": "City Savings Bank",
    "type": "bank",
    "lat": 12.498188,
    "lon": 124.640504
  },
  {
    "name": "Consolidated Bank of the Philippines",
    "type": "bank",
    "lat": 12.499185,
    "lon": 124.641913
  },
  {
    "name": "DBP",
    "type": "bank",
    "lat": 13.146545,
    "lon": 123.75411
  },
  {
    "name": "DBP",
    "type": "bank",
    "lat": 13.622515,
    "lon": 123.192525
  },
  {
    "name": "DBP",
    "type": "bank",
    "lat": 14.113208,
    "lon": 122.955581
  },
  {
    "name": "DBP",
    "type": "bank",
    "lat": 13.419634,
    "lon": 123.413422
  },
  {
    "name": "DBP Bank",
    "type": "bank",
    "lat": 12.499057,
    "lon": 124.640997
  },
  {
    "name": "Development Bank of the Philippines",
    "type": "bank",
    "lat": 13.584439,
    "lon": 124.235076
  },
  {
    "name": "East West Bank",
    "type": "bank",
    "lat": 13.145948,
    "lon": 123.75043
  },
  {
    "name": "EastWest Unibank",
    "type": "bank",
    "lat": 13.623607,
    "lon": 123.185997
  },
  {
    "name": "EastWest Unibank",
    "type": "bank",
    "lat": 13.358109,
    "lon": 123.73038
  },
  {
    "name": "EastWest Unibank",
    "type": "bank",
    "lat": 12.969531,
    "lon": 124.005858
  },
  {
    "name": "EastWest Unibank",
    "type": "bank",
    "lat": 12.703295,
    "lon": 124.035122
  },
  {
    "name": "First Consolidated Bank",
    "type": "bank",
    "lat": 13.141142,
    "lon": 123.748708
  },
  {
    "name": "Green Bank",
    "type": "bank",
    "lat": 12.970246,
    "lon": 124.001536
  },
  {
    "name": "LANDBANK",
    "type": "bank",
    "lat": 12.504479,
    "lon": 124.284358
  },
  {
    "name": "LANDBANK",
    "type": "bank",
    "lat": 13.621749,
    "lon": 123.491105
  },
  {
    "name": "Land Bank",
    "type": "bank",
    "lat": 13.149124,
    "lon": 123.715149
  },
  {
    "name": "Land Bank of the Philippines",
    "type": "bank",
    "lat": 12.496475,
    "lon": 124.640777
  },
  {
    "name": "Land Bank of the Philippines",
    "type": "bank",
    "lat": 13.420423,
    "lon": 123.414374
  },
  {
    "name": "Landbank",
    "type": "bank",
    "lat": 13.62336,
    "lon": 123.184479
  },
  {
    "name": "Landbank",
    "type": "bank",
    "lat": 13.555492,
    "lon": 123.274207
  },
  {
    "name": "Landbank",
    "type": "bank",
    "lat": 13.147737,
    "lon": 123.75276
  },
  {
    "name": "Landbank",
    "type": "bank",
    "lat": 13.621402,
    "lon": 123.200726
  },
  {
    "name": "Landbank",
    "type": "bank",
    "lat": 14.155066,
    "lon": 122.829209
  },
  {
    "name": "Landbank",
    "type": "bank",
    "lat": 13.361617,
    "lon": 123.72887
  },
  {
    "name": "Landbank",
    "type": "bank",
    "lat": 13.697274,
    "lon": 123.488921
  },
  {
    "name": "Landbank",
    "type": "bank",
    "lat": 13.583707,
    "lon": 124.208894
  },
  {
    "name": "Landbank",
    "type": "bank",
    "lat": 13.764565,
    "lon": 122.975758
  },
  {
    "name": "Landbank",
    "type": "bank",
    "lat": 13.708079,
    "lon": 123.213917
  },
  {
    "name": "Landbank",
    "type": "bank",
    "lat": 12.704062,
    "lon": 124.035411
  },
  {
    "name": "Landbank",
    "type": "bank",
    "lat": 14.118826,
    "lon": 122.951426
  },
  {
    "name": "Landbank",
    "type": "bank",
    "lat": 13.293088,
    "lon": 123.488455
  },
  {
    "name": "Landbank",
    "type": "bank",
    "lat": 13.596673,
    "lon": 124.098597
  },
  {
    "name": "Landbank",
    "type": "bank",
    "lat": 12.50129,
    "lon": 124.2821
  },
  {
    "name": "Legaspi Savings Bank",
    "type": "bank",
    "lat": 13.582318,
    "lon": 124.232069
  },
  {
    "name": "Legaspi Savings Bank",
    "type": "bank",
    "lat": 13.148666,
    "lon": 123.711387
  },
  {
    "name": "Legazpi Savings Bank",
    "type": "bank",
    "lat": 14.112816,
    "lon": 122.954545
  },
  {
    "name": "Legazpi Savings Bank",
    "type": "bank",
    "lat": 13.288677,
    "lon": 123.490778
  },
  {
    "name": "Legazpi Savings Bank",
    "type": "bank",
    "lat": 13.142745,
    "lon": 123.727936
  },
  {
    "name": "Legazpi Savings Bank",
    "type": "bank",
    "lat": 13.356913,
    "lon": 123.728337
  },
  {
    "name": "Legazpi Savings Bank",
    "type": "bank",
    "lat": 13.149063,
    "lon": 123.714621
  },
  {
    "name": "Malarayat Rural Bank",
    "type": "bank",
    "lat": 13.664487,
    "lon": 123.288009
  },
  {
    "name": "Maybank",
    "type": "bank",
    "lat": 13.623202,
    "lon": 123.185787
  },
  {
    "name": "Metrobank",
    "type": "bank",
    "lat": 13.624799,
    "lon": 123.186279
  },
  {
    "name": "Metrobank",
    "type": "bank",
    "lat": 13.621272,
    "lon": 123.185058
  },
  {
    "name": "Metrobank",
    "type": "bank",
    "lat": 14.116405,
    "lon": 122.954532
  },
  {
    "name": "Metrobank",
    "type": "bank",
    "lat": 13.359015,
    "lon": 123.730646
  },
  {
    "name": "Metrobank",
    "type": "bank",
    "lat": 13.615775,
    "lon": 123.194197
  },
  {
    "name": "Metrobank",
    "type": "bank",
    "lat": 12.498125,
    "lon": 124.641676
  },
  {
    "name": "Metrobank",
    "type": "bank",
    "lat": 12.498239,
    "lon": 124.64071
  },
  {
    "name": "Metrobank",
    "type": "bank",
    "lat": 12.972151,
    "lon": 124.007244
  },
  {
    "name": "Metrobank",
    "type": "bank",
    "lat": 13.147759,
    "lon": 123.754016
  },
  {
    "name": "Metrobank",
    "type": "bank",
    "lat": 13.139123,
    "lon": 123.732004
  },
  {
    "name": "Metrobank",
    "type": "bank",
    "lat": 13.147978,
    "lon": 123.712439
  },
  {
    "name": "Metrobank",
    "type": "bank",
    "lat": 13.623046,
    "lon": 123.184399
  },
  {
    "name": "Metrobank",
    "type": "bank",
    "lat": 13.698038,
    "lon": 123.492143
  },
  {
    "name": "Metrobank",
    "type": "bank",
    "lat": 13.145753,
    "lon": 123.752866
  },
  {
    "name": "Multibrand Distributor",
    "type": "bank",
    "lat": 13.624214,
    "lon": 123.184802
  },
  {
    "name": "Municipal Library - Daet",
    "type": "bank",
    "lat": 14.113177,
    "lon": 122.954907
  },
  {
    "name": "NICO Naga Branch",
    "type": "bank",
    "lat": 13.617142,
    "lon": 123.184353
  },
  {
    "name": "NSDWCC Building",
    "type": "bank",
    "lat": 12.500122,
    "lon": 124.638227
  },
  {
    "name": "Nabua Municipal Agriculture Multi-Purpose Cooperative",
    "type": "bank",
    "lat": 13.406811,
    "lon": 123.371961
  },
  {
    "name": "One Network Bank",
    "type": "bank",
    "lat": 13.62148,
    "lon": 123.185546
  },
  {
    "name": "PBCOM",
    "type": "bank",
    "lat": 13.622878,
    "lon": 123.187326
  },
  {
    "name": "PBCom Bank",
    "type": "bank",
    "lat": 13.144478,
    "lon": 123.748854
  },
  {
    "name": "PNB",
    "type": "bank",
    "lat": 13.630294,
    "lon": 123.197551
  },
  {
    "name": "PNB",
    "type": "bank",
    "lat": 13.148922,
    "lon": 123.715305
  },
  {
    "name": "PNB",
    "type": "bank",
    "lat": 13.14651,
    "lon": 123.752112
  },
  {
    "name": "PNB",
    "type": "bank",
    "lat": 13.697039,
    "lon": 123.488938
  },
  {
    "name": "PNB",
    "type": "bank",
    "lat": 13.420761,
    "lon": 123.411642
  },
  {
    "name": "PNB",
    "type": "bank",
    "lat": 13.623753,
    "lon": 123.184538
  },
  {
    "name": "PNB",
    "type": "bank",
    "lat": 13.6222,
    "lon": 123.194075
  },
  {
    "name": "PNB",
    "type": "bank",
    "lat": 12.97242,
    "lon": 124.007377
  },
  {
    "name": "PNB",
    "type": "bank",
    "lat": 14.114934,
    "lon": 122.956557
  },
  {
    "name": "PNB",
    "type": "bank",
    "lat": 13.290346,
    "lon": 123.490477
  },
  {
    "name": "PNB",
    "type": "bank",
    "lat": 13.553563,
    "lon": 123.275535
  },
  {
    "name": "PNB",
    "type": "bank",
    "lat": 14.111291,
    "lon": 122.955301
  },
  {
    "name": "PNB",
    "type": "bank",
    "lat": 13.148346,
    "lon": 123.755122
  },
  {
    "name": "PNB",
    "type": "bank",
    "lat": 13.584311,
    "lon": 124.235143
  },
  {
    "name": "PNB Bank",
    "type": "bank",
    "lat": 12.970547,
    "lon": 124.002199
  },
  {
    "name": "PNP",
    "type": "bank",
    "lat": 12.666557,
    "lon": 123.874922
  },
  {
    "name": "PR Savings",
    "type": "bank",
    "lat": 13.625354,
    "lon": 123.186895
  },
  {
    "name": "PR Savings Bank",
    "type": "bank",
    "lat": 13.142119,
    "lon": 123.750684
  },
  {
    "name": "PSBank",
    "type": "bank",
    "lat": 13.355091,
    "lon": 123.730475
  },
  {
    "name": "PSBank",
    "type": "bank",
    "lat": 13.62299,
    "lon": 123.186047
  },
  {
    "name": "PSBank",
    "type": "bank",
    "lat": 12.971452,
    "lon": 124.006917
  },
  {
    "name": "PSBank",
    "type": "bank",
    "lat": 14.114148,
    "lon": 122.956442
  },
  {
    "name": "PSBank Legazpi",
    "type": "bank",
    "lat": 13.145164,
    "lon": 123.749181
  },
  {
    "name": "Philippine Business Bank",
    "type": "bank",
    "lat": 13.619282,
    "lon": 123.189133
  },
  {
    "name": "Philippine National Bank",
    "type": "bank",
    "lat": 12.497018,
    "lon": 124.640329
  },
  {
    "name": "Philippine National Bank",
    "type": "bank",
    "lat": 13.360381,
    "lon": 123.729444
  },
  {
    "name": "Producer's Bank",
    "type": "bank",
    "lat": 13.357335,
    "lon": 123.729029
  },
  {
    "name": "Producers Bank",
    "type": "bank",
    "lat": 12.970968,
    "lon": 123.999403
  },
  {
    "name": "Producers Bank",
    "type": "bank",
    "lat": 13.14952,
    "lon": 123.753293
  },
  {
    "name": "Producers Bank",
    "type": "bank",
    "lat": 13.621704,
    "lon": 123.197554
  },
  {
    "name": "Producers Bank",
    "type": "bank",
    "lat": 13.406404,
    "lon": 123.373205
  },
  {
    "name": "Producers Bank",
    "type": "bank",
    "lat": 13.290497,
    "lon": 123.490467
  },
  {
    "name": "Producers Bank",
    "type": "bank",
    "lat": 13.452896,
    "lon": 123.366503
  },
  {
    "name": "Producers Bank",
    "type": "bank",
    "lat": 13.576026,
    "lon": 123.066592
  },
  {
    "name": "Producers Bank",
    "type": "bank",
    "lat": 13.816131,
    "lon": 123.324066
  },
  {
    "name": "Producers Bank",
    "type": "bank",
    "lat": 13.707693,
    "lon": 123.21366
  },
  {
    "name": "Queenbank",
    "type": "bank",
    "lat": 13.623632,
    "lon": 123.185779
  },
  {
    "name": "RB Pamplona",
    "type": "bank",
    "lat": 13.76799,
    "lon": 122.976891
  },
  {
    "name": "RCBC",
    "type": "bank",
    "lat": 13.623069,
    "lon": 123.185619
  },
  {
    "name": "RCBC",
    "type": "bank",
    "lat": 13.356906,
    "lon": 123.730051
  },
  {
    "name": "RCBC",
    "type": "bank",
    "lat": 13.144583,
    "lon": 123.748619
  },
  {
    "name": "RCBC",
    "type": "bank",
    "lat": 13.623717,
    "lon": 123.185781
  },
  {
    "name": "RCBC",
    "type": "bank",
    "lat": 13.629756,
    "lon": 123.19797
  },
  {
    "name": "RCBC Bank",
    "type": "bank",
    "lat": 12.499157,
    "lon": 124.641671
  },
  {
    "name": "Robinsons Bank",
    "type": "bank",
    "lat": 13.147634,
    "lon": 123.752762
  },
  {
    "name": "Robinsons Bank",
    "type": "bank",
    "lat": 13.623812,
    "lon": 123.185787
  },
  {
    "name": "Rural Bank of Donsol",
    "type": "bank",
    "lat": 12.906909,
    "lon": 123.594719
  },
  {
    "name": "Rural Bank of Donsol (Sorsogon) Inc.",
    "type": "bank",
    "lat": 13.325239,
    "lon": 123.433665
  },
  {
    "name": "Rural Bank of Guinobatan",
    "type": "bank",
    "lat": 12.918537,
    "lon": 124.123275
  },
  {
    "name": "Rural Bank of Guinobatan, Inc",
    "type": "bank",
    "lat": 13.191671,
    "lon": 123.599607
  },
  {
    "name": "Rural Bank of Guinobatan, Inc.",
    "type": "bank",
    "lat": 13.356222,
    "lon": 123.729546
  },
  {
    "name": "Rural Bank of Jose Panganiban",
    "type": "bank",
    "lat": 14.119035,
    "lon": 122.950756
  },
  {
    "name": "Rural Bank of Nabua",
    "type": "bank",
    "lat": 13.408752,
    "lon": 123.376229
  },
  {
    "name": "Rural Bank of Pola",
    "type": "bank",
    "lat": 13.55377,
    "lon": 123.275769
  },
  {
    "name": "Rural Bank of Pola",
    "type": "bank",
    "lat": 13.152205,
    "lon": 123.75256
  },
  {
    "name": "Rural Bank of Pola",
    "type": "bank",
    "lat": 13.624491,
    "lon": 123.184113
  },
  {
    "name": "Rural Bank of San Jacinto (Masbate), Inc.",
    "type": "bank",
    "lat": 12.570032,
    "lon": 123.733026
  },
  {
    "name": "Rural Bank of San Jose",
    "type": "bank",
    "lat": 13.698343,
    "lon": 123.517354
  },
  {
    "name": "Rural Bank of San Jose",
    "type": "bank",
    "lat": 13.62155,
    "lon": 123.200895
  },
  {
    "name": "Rural Bank of San Vicente",
    "type": "bank",
    "lat": 14.106806,
    "lon": 122.873638
  },
  {
    "name": "Rural Bank of Santa Magdalena",
    "type": "bank",
    "lat": 12.645683,
    "lon": 124.107565
  },
  {
    "name": "Rural Bank of Sipocot, Inc.",
    "type": "bank",
    "lat": 13.765052,
    "lon": 122.97587
  },
  {
    "name": "Security Bank",
    "type": "bank",
    "lat": 12.497801,
    "lon": 124.641551
  },
  {
    "name": "Security Bank",
    "type": "bank",
    "lat": 13.617009,
    "lon": 123.195589
  },
  {
    "name": "Security Bank",
    "type": "bank",
    "lat": 13.145666,
    "lon": 123.749134
  },
  {
    "name": "Security Bank",
    "type": "bank",
    "lat": 13.623559,
    "lon": 123.186
  },
  {
    "name": "Security Bank",
    "type": "bank",
    "lat": 13.623117,
    "lon": 123.187226
  },
  {
    "name": "SouthEast Country Bank, Inc.",
    "type": "bank",
    "lat": 13.557438,
    "lon": 123.273613
  },
  {
    "name": "Sterling Bank of Asia (Naga City)",
    "type": "bank",
    "lat": 13.627275,
    "lon": 123.188466
  },
  {
    "name": "Sun Life Financial",
    "type": "bank",
    "lat": 13.145005,
    "lon": 123.749016
  },
  {
    "name": "UCPB",
    "type": "bank",
    "lat": 13.771715,
    "lon": 123.86345
  },
  {
    "name": "UCPB",
    "type": "bank",
    "lat": 12.972874,
    "lon": 124.00753
  },
  {
    "name": "UCPB Savings Bank",
    "type": "bank",
    "lat": 13.554657,
    "lon": 123.274918
  },
  {
    "name": "UCPB Savings Bank",
    "type": "bank",
    "lat": 14.115254,
    "lon": 122.956832
  },
  {
    "name": "UnionBank",
    "type": "bank",
    "lat": 13.146832,
    "lon": 123.752606
  },
  {
    "name": "UnionBank",
    "type": "bank",
    "lat": 13.621192,
    "lon": 123.199329
  },
  {
    "name": "UnionBank",
    "type": "bank",
    "lat": 13.145244,
    "lon": 123.750099
  },
  {
    "name": "Veterans Bank",
    "type": "bank",
    "lat": 13.151796,
    "lon": 123.752754
  },
  {
    "name": "A. Arandia Line - Pio Duran Terminal",
    "type": "bus_station",
    "lat": 13.029536,
    "lon": 123.444219
  },
  {
    "name": "ALPS The Bus - Gubat Terminal",
    "type": "bus_station",
    "lat": 12.924534,
    "lon": 124.12197
  },
  {
    "name": "Arandia Bus Terminal",
    "type": "bus_station",
    "lat": 13.112671,
    "lon": 123.469923
  },
  {
    "name": "Balatan Transport Terminal",
    "type": "bus_station",
    "lat": 13.317257,
    "lon": 123.233118
  },
  {
    "name": "Bicol Central Station",
    "type": "bus_station",
    "lat": 13.619236,
    "lon": 123.189743
  },
  {
    "name": "Bicol Isarog - Virac Terminal",
    "type": "bus_station",
    "lat": 13.575897,
    "lon": 124.22829
  },
  {
    "name": "Bicol Isarog Passenger Pick Up/Drop-Off Station",
    "type": "bus_station",
    "lat": 13.409997,
    "lon": 123.371908
  },
  {
    "name": "Bobis Liner - Malilipot Terminal",
    "type": "bus_station",
    "lat": 13.319944,
    "lon": 123.73927
  },
  {
    "name": "Buhi Terminal",
    "type": "bus_station",
    "lat": 13.418963,
    "lon": 123.515988
  },
  {
    "name": "Bulan Integrated Bus Terminal",
    "type": "bus_station",
    "lat": 12.663785,
    "lon": 123.899637
  },
  {
    "name": "Bulusan Public Terminal",
    "type": "bus_station",
    "lat": 12.750413,
    "lon": 124.136092
  },
  {
    "name": "Bus Stop",
    "type": "bus_station",
    "lat": 14.123905,
    "lon": 122.943075
  },
  {
    "name": "Bus Terminal",
    "type": "bus_station",
    "lat": 12.920721,
    "lon": 124.122557
  },
  {
    "name": "Catarman Land Transport Terminal",
    "type": "bus_station",
    "lat": 12.494983,
    "lon": 124.640788
  },
  {
    "name": "DLTBCo Tigaon Terminal",
    "type": "bus_station",
    "lat": 13.633574,
    "lon": 123.498075
  },
  {
    "name": "Daet Bus & Jeepney Terminal",
    "type": "bus_station",
    "lat": 14.122717,
    "lon": 122.945078
  },
  {
    "name": "Daet Central Terminal",
    "type": "bus_station",
    "lat": 14.105581,
    "lon": 122.950985
  },
  {
    "name": "Daet Integrated Transport Terminal",
    "type": "bus_station",
    "lat": 14.118341,
    "lon": 122.94603
  },
  {
    "name": "Daraga Bus Station",
    "type": "bus_station",
    "lat": 13.147816,
    "lon": 123.711402
  },
  {
    "name": "Donsol Transportation Terminal",
    "type": "bus_station",
    "lat": 12.903088,
    "lon": 123.594206
  },
  {
    "name": "Eaglestar - Naga Terminal",
    "type": "bus_station",
    "lat": 13.616384,
    "lon": 123.186632
  },
  {
    "name": "Elavil - Bacon Terminal",
    "type": "bus_station",
    "lat": 13.03931,
    "lon": 124.040464
  },
  {
    "name": "Elavil - Daet Terminal",
    "type": "bus_station",
    "lat": 14.116571,
    "lon": 122.942685
  },
  {
    "name": "Elavil - Gubat Terminal",
    "type": "bus_station",
    "lat": 12.920395,
    "lon": 124.122654
  },
  {
    "name": "Elavil Bus Terminal",
    "type": "bus_station",
    "lat": 12.749434,
    "lon": 124.137199
  },
  {
    "name": "Goa Integrated Central Terminal",
    "type": "bus_station",
    "lat": 13.694927,
    "lon": 123.492463
  },
  {
    "name": "Grand Tours",
    "type": "bus_station",
    "lat": 12.499108,
    "lon": 124.638945
  },
  {
    "name": "Grand Tours",
    "type": "bus_station",
    "lat": 12.493146,
    "lon": 124.282748
  },
  {
    "name": "Grand Tours Terminal",
    "type": "bus_station",
    "lat": 12.49315,
    "lon": 124.282737
  },
  {
    "name": "Gubat Jeepney Terminal",
    "type": "bus_station",
    "lat": 12.921832,
    "lon": 124.122284
  },
  {
    "name": "Guinobatan Bus and Food Terminal",
    "type": "bus_station",
    "lat": 13.194971,
    "lon": 123.596996
  },
  {
    "name": "Jeepney Station (To Barangay Pacol) Naga City",
    "type": "bus_station",
    "lat": 13.620981,
    "lon": 123.184647
  },
  {
    "name": "Jeepney Station (To Barangays Carolina and Panicuason) Naga City",
    "type": "bus_station",
    "lat": 13.62108,
    "lon": 123.185012
  },
  {
    "name": "Jeepney Station (To Barangays Concepcion and Del Rosario) Naga City",
    "type": "bus_station",
    "lat": 13.623064,
    "lon": 123.185975
  },
  {
    "name": "Jeepney Station/Stop from (Del Rosario, Naga City) to Downtown (Centro) Naga City via (1. Panganiban Drive), (2. Magsaysay Avenue), (3. Roxas Avenue (Diversion))",
    "type": "bus_station",
    "lat": 13.618158,
    "lon": 123.23382
  },
  {
    "name": "Jeepney Stop to Downtown (Centro) Naga City",
    "type": "bus_station",
    "lat": 13.617918,
    "lon": 123.225063
  },
  {
    "name": "Jeepney Terminal",
    "type": "bus_station",
    "lat": 13.237828,
    "lon": 123.776926
  },
  {
    "name": "Jeepney Terminal",
    "type": "bus_station",
    "lat": 12.921819,
    "lon": 124.122597
  },
  {
    "name": "Jeepney Terminal",
    "type": "bus_station",
    "lat": 13.15698,
    "lon": 123.718533
  },
  {
    "name": "Jeepney Terminal",
    "type": "bus_station",
    "lat": 13.143366,
    "lon": 123.744257
  },
  {
    "name": "Jeepney Terminal to Catarman",
    "type": "bus_station",
    "lat": 12.502764,
    "lon": 124.288489
  },
  {
    "name": "Jeepney terminal(pio duran - ligao city)",
    "type": "bus_station",
    "lat": 13.238252,
    "lon": 123.534169
  },
  {
    "name": "Jeepney to Baras",
    "type": "bus_station",
    "lat": 13.581643,
    "lon": 124.23336
  },
  {
    "name": "LCC Naga Transport Station",
    "type": "bus_station",
    "lat": 13.618967,
    "lon": 123.178211
  },
  {
    "name": "LCC Terminal",
    "type": "bus_station",
    "lat": 13.406366,
    "lon": 123.372905
  },
  {
    "name": "Labo Central Terminal",
    "type": "bus_station",
    "lat": 14.158663,
    "lon": 122.82683
  },
  {
    "name": "Lagonoy Transport Terminal",
    "type": "bus_station",
    "lat": 13.731406,
    "lon": 123.520701
  },
  {
    "name": "Legazpi Grand Central Terminal",
    "type": "bus_station",
    "lat": 13.143433,
    "lon": 123.745644
  },
  {
    "name": "Legazpi UV Express Terminal",
    "type": "bus_station",
    "lat": 13.143253,
    "lon": 123.744844
  },
  {
    "name": "Naga Integrated Northbound Terminal",
    "type": "bus_station",
    "lat": 13.634449,
    "lon": 123.184907
  },
  {
    "name": "New Turbanada",
    "type": "bus_station",
    "lat": 12.499834,
    "lon": 124.640146
  },
  {
    "name": "Ocampo Land Transport Terminal",
    "type": "bus_station",
    "lat": 13.559196,
    "lon": 123.37336
  },
  {
    "name": "Peñafrancia - Gubat Terminal",
    "type": "bus_station",
    "lat": 12.921262,
    "lon": 124.122455
  },
  {
    "name": "Philtranco Bus Station",
    "type": "bus_station",
    "lat": 14.116055,
    "lon": 122.96082
  },
  {
    "name": "Philtranco Bus Terminal",
    "type": "bus_station",
    "lat": 14.116059,
    "lon": 122.960727
  },
  {
    "name": "Pio Duran Bus and Jeep Terminal",
    "type": "bus_station",
    "lat": 13.032363,
    "lon": 123.445626
  },
  {
    "name": "Polangui Bus & Jeepney Terminal",
    "type": "bus_station",
    "lat": 13.289068,
    "lon": 123.489999
  },
  {
    "name": "RSL Bus Ticketing Station",
    "type": "bus_station",
    "lat": 13.597785,
    "lon": 124.096965
  },
  {
    "name": "Raymond Bus Station",
    "type": "bus_station",
    "lat": 13.88322,
    "lon": 123.700448
  },
  {
    "name": "Sabang Port",
    "type": "bus_station",
    "lat": 13.722862,
    "lon": 123.582526
  },
  {
    "name": "Sabang-Naga UV Express Terminal",
    "type": "bus_station",
    "lat": 13.722857,
    "lon": 123.582104
  },
  {
    "name": "Superlines Bus Station",
    "type": "bus_station",
    "lat": 13.883316,
    "lon": 123.699205
  },
  {
    "name": "Tabaco Satellite Terminal",
    "type": "bus_station",
    "lat": 13.359946,
    "lon": 123.731106
  },
  {
    "name": "Terminal Building 1",
    "type": "bus_station",
    "lat": 13.370094,
    "lon": 123.72219
  },
  {
    "name": "Terminal Building 2",
    "type": "bus_station",
    "lat": 13.369884,
    "lon": 123.721688
  },
  {
    "name": "UV Express Terminal - Ligao City",
    "type": "bus_station",
    "lat": 13.238185,
    "lon": 123.536136
  },
  {
    "name": "UV-Express Southbound Terminal",
    "type": "bus_station",
    "lat": 13.618777,
    "lon": 123.193513
  },
  {
    "name": "Van Terminal",
    "type": "bus_station",
    "lat": 13.770807,
    "lon": 122.977441
  },
  {
    "name": "Virac Jeep and Bus Terminal",
    "type": "bus_station",
    "lat": 13.578915,
    "lon": 124.228618
  },
  {
    "name": "A. Bichara Silverscreens",
    "type": "cinema",
    "lat": 13.14905,
    "lon": 123.752506
  },
  {
    "name": "Bichara",
    "type": "cinema",
    "lat": 13.6228,
    "lon": 123.184352
  },
  {
    "name": "Emily Theather",
    "type": "cinema",
    "lat": 13.623744,
    "lon": 123.185996
  },
  {
    "name": "Robinson's Movie World",
    "type": "cinema",
    "lat": 13.614588,
    "lon": 123.193022
  },
  {
    "name": "Saturmar Cable Tv",
    "type": "cinema",
    "lat": 12.499906,
    "lon": 124.637854
  },
  {
    "name": "BFP Monreal",
    "type": "fire_station",
    "lat": 12.642672,
    "lon": 123.664367
  },
  {
    "name": "BFP Vinzons",
    "type": "fire_station",
    "lat": 14.173309,
    "lon": 122.907367
  },
  {
    "name": "BUREAU OF FIRE PROTECTION",
    "type": "fire_station",
    "lat": 13.190523,
    "lon": 123.612233
  },
  {
    "name": "Baao Fire Station",
    "type": "fire_station",
    "lat": 13.453636,
    "lon": 123.366445
  },
  {
    "name": "Balatan Fire Station",
    "type": "fire_station",
    "lat": 13.317049,
    "lon": 123.233289
  },
  {
    "name": "Balatan Municipal Fire Station",
    "type": "fire_station",
    "lat": 13.316864,
    "lon": 123.240398
  },
  {
    "name": "Baleno Fire Station",
    "type": "fire_station",
    "lat": 12.471289,
    "lon": 123.497732
  },
  {
    "name": "Basud Municipal Fire Station",
    "type": "fire_station",
    "lat": 14.071447,
    "lon": 122.960363
  },
  {
    "name": "Bato Fire Station",
    "type": "fire_station",
    "lat": 13.609759,
    "lon": 124.297254
  },
  {
    "name": "Bureau of Fire Protection",
    "type": "fire_station",
    "lat": 13.151491,
    "lon": 123.752739
  },
  {
    "name": "Bureau of Fire Protection Tabaco City",
    "type": "fire_station",
    "lat": 13.370354,
    "lon": 123.722738
  },
  {
    "name": "Camaligan Fire Station",
    "type": "fire_station",
    "lat": 13.624622,
    "lon": 123.167231
  },
  {
    "name": "Capul Fire Station",
    "type": "fire_station",
    "lat": 12.422758,
    "lon": 124.182579
  },
  {
    "name": "Catarman Central Fire Station",
    "type": "fire_station",
    "lat": 12.499581,
    "lon": 124.637441
  },
  {
    "name": "Chin Po Tong Volunteer Fire Brigade",
    "type": "fire_station",
    "lat": 13.619359,
    "lon": 123.190416
  },
  {
    "name": "Culab-og Fire Station",
    "type": "fire_station",
    "lat": 12.500476,
    "lon": 124.282848
  },
  {
    "name": "Daet Central Fire Station",
    "type": "fire_station",
    "lat": 14.118251,
    "lon": 122.945603
  },
  {
    "name": "Donsol Fire Station",
    "type": "fire_station",
    "lat": 12.906491,
    "lon": 123.596812
  },
  {
    "name": "Fire Station",
    "type": "fire_station",
    "lat": 13.237304,
    "lon": 123.777427
  },
  {
    "name": "Fire Station",
    "type": "fire_station",
    "lat": 12.503017,
    "lon": 124.627403
  },
  {
    "name": "Garchitorena Fire Station",
    "type": "fire_station",
    "lat": 13.884142,
    "lon": 123.701779
  },
  {
    "name": "Gigmoto Fire Station",
    "type": "fire_station",
    "lat": 13.781082,
    "lon": 124.389027
  },
  {
    "name": "Guinobatan Fire Station",
    "type": "fire_station",
    "lat": 13.191562,
    "lon": 123.599136
  },
  {
    "name": "Iriga City Fire Station",
    "type": "fire_station",
    "lat": 13.419097,
    "lon": 123.413185
  },
  {
    "name": "Lavezares Fire Station",
    "type": "fire_station",
    "lat": 12.534786,
    "lon": 124.330907
  },
  {
    "name": "Legazpi City Fire Station",
    "type": "fire_station",
    "lat": 13.141521,
    "lon": 123.759933
  },
  {
    "name": "Malilipot Fire Station",
    "type": "fire_station",
    "lat": 13.323099,
    "lon": 123.73713
  },
  {
    "name": "Mercedes Fire Station",
    "type": "fire_station",
    "lat": 14.110764,
    "lon": 123.009485
  },
  {
    "name": "Mondragon Fire Station",
    "type": "fire_station",
    "lat": 12.517478,
    "lon": 124.751236
  },
  {
    "name": "Nabua Fire Station",
    "type": "fire_station",
    "lat": 13.405709,
    "lon": 123.373587
  },
  {
    "name": "Naga City Fire Station",
    "type": "fire_station",
    "lat": 13.625039,
    "lon": 123.199357
  },
  {
    "name": "Pandan Fire Station",
    "type": "fire_station",
    "lat": 14.047329,
    "lon": 124.171161
  },
  {
    "name": "Panganiban Fire Station",
    "type": "fire_station",
    "lat": 13.907229,
    "lon": 124.300894
  },
  {
    "name": "Pasacao Fire Station",
    "type": "fire_station",
    "lat": 13.517233,
    "lon": 123.042052
  },
  {
    "name": "Pilar Fire Station",
    "type": "fire_station",
    "lat": 12.925509,
    "lon": 123.666682
  },
  {
    "name": "Pili Fire Sub Station",
    "type": "fire_station",
    "lat": 13.584334,
    "lon": 123.26403
  },
  {
    "name": "Pio Duran Fire Station",
    "type": "fire_station",
    "lat": 13.028537,
    "lon": 123.44769
  },
  {
    "name": "Pio Duran Fire Station",
    "type": "fire_station",
    "lat": 13.044809,
    "lon": 123.455834
  },
  {
    "name": "Pioduran Fire Station",
    "type": "fire_station",
    "lat": 13.044898,
    "lon": 123.455945
  },
  {
    "name": "Polangui Fire Station",
    "type": "fire_station",
    "lat": 13.292858,
    "lon": 123.48438
  },
  {
    "name": "San Andres Fire Station",
    "type": "fire_station",
    "lat": 13.598877,
    "lon": 124.09804
  },
  {
    "name": "San Antonio Fire Station",
    "type": "fire_station",
    "lat": 12.413398,
    "lon": 124.27894
  },
  {
    "name": "San Fernando Fire Station",
    "type": "fire_station",
    "lat": 13.565163,
    "lon": 123.143883
  },
  {
    "name": "San Lorenzo Ruiz Fire Station",
    "type": "fire_station",
    "lat": 14.035134,
    "lon": 122.862195
  },
  {
    "name": "Sipocot Fire Station",
    "type": "fire_station",
    "lat": 13.830842,
    "lon": 122.957406
  },
  {
    "name": "Sorsogon City Fire Station",
    "type": "fire_station",
    "lat": 12.98198,
    "lon": 124.023239
  },
  {
    "name": "Sorsogon Fire Station",
    "type": "fire_station",
    "lat": 12.968958,
    "lon": 124.002657
  },
  {
    "name": "Tinambac Fire Station",
    "type": "fire_station",
    "lat": 13.816702,
    "lon": 123.337877
  },
  {
    "name": "Tiwi Fire Station",
    "type": "fire_station",
    "lat": 13.456047,
    "lon": 123.680429
  },
  {
    "name": "Tsinoy Fire Volunteer",
    "type": "fire_station",
    "lat": 13.357725,
    "lon": 123.727578
  },
  {
    "name": "Virac Airport Fire Station",
    "type": "fire_station",
    "lat": 13.579024,
    "lon": 124.211771
  },
  {
    "name": "Virac Fire Station",
    "type": "fire_station",
    "lat": 13.584756,
    "lon": 124.236496
  },
  {
    "name": "4J Gas Station",
    "type": "fuel",
    "lat": 14.16106,
    "lon": 122.949593
  },
  {
    "name": "7-Eleven",
    "type": "fuel",
    "lat": 14.068716,
    "lon": 122.962689
  },
  {
    "name": "ACE",
    "type": "fuel",
    "lat": 13.155515,
    "lon": 123.71498
  },
  {
    "name": "AGB Gasoline Station",
    "type": "fuel",
    "lat": 13.550235,
    "lon": 123.284738
  },
  {
    "name": "AMOEC Fuels",
    "type": "fuel",
    "lat": 12.503298,
    "lon": 124.288292
  },
  {
    "name": "ARC",
    "type": "fuel",
    "lat": 13.623505,
    "lon": 123.178487
  },
  {
    "name": "Alpha Gas",
    "type": "fuel",
    "lat": 12.474166,
    "lon": 123.494981
  },
  {
    "name": "Ambygaz Fuel Station",
    "type": "fuel",
    "lat": 13.4117,
    "lon": 123.453484
  },
  {
    "name": "BC Ball Fuels",
    "type": "fuel",
    "lat": 13.237101,
    "lon": 123.535737
  },
  {
    "name": "Bastian Oil Service Station",
    "type": "fuel",
    "lat": 13.288918,
    "lon": 123.487689
  },
  {
    "name": "Belleza Fuel Station",
    "type": "fuel",
    "lat": 13.291083,
    "lon": 123.757099
  },
  {
    "name": "Biahero Gas Station",
    "type": "fuel",
    "lat": 14.128578,
    "lon": 122.965286
  },
  {
    "name": "Bicol Petroleum",
    "type": "fuel",
    "lat": 13.160803,
    "lon": 123.746723
  },
  {
    "name": "Bicol Petroleum",
    "type": "fuel",
    "lat": 13.177967,
    "lon": 123.647821
  },
  {
    "name": "Bicol Petroleum",
    "type": "fuel",
    "lat": 13.573753,
    "lon": 123.090311
  },
  {
    "name": "Bicol Petroleum",
    "type": "fuel",
    "lat": 13.615545,
    "lon": 123.24659
  },
  {
    "name": "Bicol Petroleum",
    "type": "fuel",
    "lat": 13.448171,
    "lon": 123.390933
  },
  {
    "name": "Bicol Petroleum",
    "type": "fuel",
    "lat": 13.45635,
    "lon": 123.363568
  },
  {
    "name": "Bicol Petroleum",
    "type": "fuel",
    "lat": 13.530846,
    "lon": 123.288334
  },
  {
    "name": "Bicol Petroleum",
    "type": "fuel",
    "lat": 13.542445,
    "lon": 123.284654
  },
  {
    "name": "Bicol Petroleum",
    "type": "fuel",
    "lat": 13.616361,
    "lon": 123.194455
  },
  {
    "name": "Bicol Petroleum",
    "type": "fuel",
    "lat": 13.626635,
    "lon": 123.178373
  },
  {
    "name": "Bicol Petroleum",
    "type": "fuel",
    "lat": 13.350483,
    "lon": 123.379364
  },
  {
    "name": "Bicol Petroleum",
    "type": "fuel",
    "lat": 13.565339,
    "lon": 123.11269
  },
  {
    "name": "Bicol Petroleum",
    "type": "fuel",
    "lat": 13.349199,
    "lon": 123.381569
  },
  {
    "name": "Bicol Petroleum",
    "type": "fuel",
    "lat": 13.559498,
    "lon": 123.378225
  },
  {
    "name": "Bicol Petroleum",
    "type": "fuel",
    "lat": 13.484849,
    "lon": 123.335741
  },
  {
    "name": "Bicol Petroleum Tigaon",
    "type": "fuel",
    "lat": 13.621971,
    "lon": 123.49073
  },
  {
    "name": "C-Gas",
    "type": "fuel",
    "lat": 13.616482,
    "lon": 123.187911
  },
  {
    "name": "CGS",
    "type": "fuel",
    "lat": 13.783923,
    "lon": 123.859235
  },
  {
    "name": "CQ",
    "type": "fuel",
    "lat": 13.16638,
    "lon": 123.751295
  },
  {
    "name": "CQ Gas Station",
    "type": "fuel",
    "lat": 13.165337,
    "lon": 123.752005
  },
  {
    "name": "CQ Gas Station",
    "type": "fuel",
    "lat": 13.146193,
    "lon": 123.74073
  },
  {
    "name": "Caltex",
    "type": "fuel",
    "lat": 13.120799,
    "lon": 123.702302
  },
  {
    "name": "Caltex",
    "type": "fuel",
    "lat": 13.616389,
    "lon": 123.186189
  },
  {
    "name": "Caltex",
    "type": "fuel",
    "lat": 13.146321,
    "lon": 123.749232
  },
  {
    "name": "Caltex",
    "type": "fuel",
    "lat": 13.668843,
    "lon": 123.010284
  },
  {
    "name": "Caltex",
    "type": "fuel",
    "lat": 13.557345,
    "lon": 123.283321
  },
  {
    "name": "Caltex",
    "type": "fuel",
    "lat": 13.173314,
    "lon": 123.751686
  },
  {
    "name": "Caltex",
    "type": "fuel",
    "lat": 12.841427,
    "lon": 123.994039
  },
  {
    "name": "Caltex",
    "type": "fuel",
    "lat": 13.636656,
    "lon": 123.186098
  },
  {
    "name": "Caltex",
    "type": "fuel",
    "lat": 13.148549,
    "lon": 123.714426
  },
  {
    "name": "Caltex",
    "type": "fuel",
    "lat": 13.35858,
    "lon": 123.729957
  },
  {
    "name": "Caltex",
    "type": "fuel",
    "lat": 13.552732,
    "lon": 123.276577
  },
  {
    "name": "Caltex",
    "type": "fuel",
    "lat": 13.150279,
    "lon": 123.734622
  },
  {
    "name": "Caltex",
    "type": "fuel",
    "lat": 12.922389,
    "lon": 124.122197
  },
  {
    "name": "Caltex",
    "type": "fuel",
    "lat": 12.97836,
    "lon": 123.98553
  },
  {
    "name": "Caltex",
    "type": "fuel",
    "lat": 13.696707,
    "lon": 123.489281
  },
  {
    "name": "Caltex",
    "type": "fuel",
    "lat": 13.28858,
    "lon": 123.489417
  },
  {
    "name": "Caltex",
    "type": "fuel",
    "lat": 13.748852,
    "lon": 122.973822
  },
  {
    "name": "Caltex",
    "type": "fuel",
    "lat": 13.188386,
    "lon": 123.601185
  },
  {
    "name": "Caltex",
    "type": "fuel",
    "lat": 13.154805,
    "lon": 123.750977
  },
  {
    "name": "Caltex",
    "type": "fuel",
    "lat": 13.4202,
    "lon": 123.413551
  },
  {
    "name": "Caltex",
    "type": "fuel",
    "lat": 14.09742,
    "lon": 122.956892
  },
  {
    "name": "Caltex",
    "type": "fuel",
    "lat": 13.237462,
    "lon": 123.551452
  },
  {
    "name": "Caltex",
    "type": "fuel",
    "lat": 14.118466,
    "lon": 122.951959
  },
  {
    "name": "Caltex",
    "type": "fuel",
    "lat": 13.575582,
    "lon": 123.071414
  },
  {
    "name": "Caltex",
    "type": "fuel",
    "lat": 13.698235,
    "lon": 123.517892
  },
  {
    "name": "Camalig Gas",
    "type": "fuel",
    "lat": 13.18098,
    "lon": 123.655606
  },
  {
    "name": "Citi Line Diesel Station",
    "type": "fuel",
    "lat": 13.350372,
    "lon": 123.732033
  },
  {
    "name": "Cleanfuel",
    "type": "fuel",
    "lat": 13.159809,
    "lon": 123.701554
  },
  {
    "name": "Constant Fuel",
    "type": "fuel",
    "lat": 13.447386,
    "lon": 123.391419
  },
  {
    "name": "Cosco",
    "type": "fuel",
    "lat": 13.550557,
    "lon": 123.27792
  },
  {
    "name": "DBZ",
    "type": "fuel",
    "lat": 13.710566,
    "lon": 123.223762
  },
  {
    "name": "Daraga Shell Gasoline Station",
    "type": "fuel",
    "lat": 13.147981,
    "lon": 123.711775
  },
  {
    "name": "Diversion Gas Station",
    "type": "fuel",
    "lat": 12.489805,
    "lon": 124.640096
  },
  {
    "name": "Don Petrolyo",
    "type": "fuel",
    "lat": 13.357318,
    "lon": 123.70585
  },
  {
    "name": "Don Petrolyo",
    "type": "fuel",
    "lat": 13.368781,
    "lon": 123.724166
  },
  {
    "name": "Dong Gas Station",
    "type": "fuel",
    "lat": 13.615809,
    "lon": 123.242851
  },
  {
    "name": "Driveway Fuel Express",
    "type": "fuel",
    "lat": 13.816836,
    "lon": 123.337221
  },
  {
    "name": "Dual Fuel",
    "type": "fuel",
    "lat": 13.178175,
    "lon": 123.643379
  },
  {
    "name": "EGAS",
    "type": "fuel",
    "lat": 13.571133,
    "lon": 123.265634
  },
  {
    "name": "EGAS Concepcion",
    "type": "fuel",
    "lat": 13.621154,
    "lon": 123.210307
  },
  {
    "name": "EGas",
    "type": "fuel",
    "lat": 13.53199,
    "lon": 123.287126
  },
  {
    "name": "ERS Gas",
    "type": "fuel",
    "lat": 13.603968,
    "lon": 123.179954
  },
  {
    "name": "EYC Fuel Hub",
    "type": "fuel",
    "lat": 13.698202,
    "lon": 123.517681
  },
  {
    "name": "EZ Gas Station",
    "type": "fuel",
    "lat": 13.558046,
    "lon": 123.122949
  },
  {
    "name": "Eagle Petroleum",
    "type": "fuel",
    "lat": 13.298872,
    "lon": 123.43268
  },
  {
    "name": "Eastern Petroleum",
    "type": "fuel",
    "lat": 13.138907,
    "lon": 123.743724
  },
  {
    "name": "Ecofuel Gas Station",
    "type": "fuel",
    "lat": 13.341283,
    "lon": 123.734371
  },
  {
    "name": "Emeyer Fuels",
    "type": "fuel",
    "lat": 13.245946,
    "lon": 123.55866
  },
  {
    "name": "Enervi",
    "type": "fuel",
    "lat": 13.680141,
    "lon": 123.003841
  },
  {
    "name": "Extrame",
    "type": "fuel",
    "lat": 12.981602,
    "lon": 123.975563
  },
  {
    "name": "FB gas station",
    "type": "fuel",
    "lat": 13.186095,
    "lon": 123.66663
  },
  {
    "name": "FMB Gas Station",
    "type": "fuel",
    "lat": 12.509162,
    "lon": 124.596189
  },
  {
    "name": "Filoil",
    "type": "fuel",
    "lat": 13.139739,
    "lon": 123.745339
  },
  {
    "name": "Flying V",
    "type": "fuel",
    "lat": 14.150115,
    "lon": 122.838623
  },
  {
    "name": "Flying V",
    "type": "fuel",
    "lat": 13.456888,
    "lon": 123.364859
  },
  {
    "name": "Flying V",
    "type": "fuel",
    "lat": 13.420846,
    "lon": 123.415972
  },
  {
    "name": "Flying V",
    "type": "fuel",
    "lat": 13.32637,
    "lon": 123.737766
  },
  {
    "name": "Foursome",
    "type": "fuel",
    "lat": 13.200581,
    "lon": 123.754995
  },
  {
    "name": "Fuel Booster",
    "type": "fuel",
    "lat": 13.559123,
    "lon": 123.282131
  },
  {
    "name": "Fuel Express",
    "type": "fuel",
    "lat": 13.536494,
    "lon": 123.285169
  },
  {
    "name": "Fuel Express",
    "type": "fuel",
    "lat": 13.610209,
    "lon": 123.181197
  },
  {
    "name": "Fuel Hub",
    "type": "fuel",
    "lat": 13.145382,
    "lon": 123.734355
  },
  {
    "name": "Fuel Save Gas Depot Co.",
    "type": "fuel",
    "lat": 13.602005,
    "lon": 123.47371
  },
  {
    "name": "Fuel Save Gas Depot, Co.",
    "type": "fuel",
    "lat": 13.749196,
    "lon": 122.974473
  },
  {
    "name": "Full Tank",
    "type": "fuel",
    "lat": 13.356114,
    "lon": 123.711836
  },
  {
    "name": "GAsoline Station",
    "type": "fuel",
    "lat": 13.365692,
    "lon": 123.52877
  },
  {
    "name": "GNB Gas Station",
    "type": "fuel",
    "lat": 13.315499,
    "lon": 123.234057
  },
  {
    "name": "GNB Gas Station",
    "type": "fuel",
    "lat": 13.316514,
    "lon": 123.237533
  },
  {
    "name": "Gaite Service Station",
    "type": "fuel",
    "lat": 13.610931,
    "lon": 123.211968
  },
  {
    "name": "Gaite Service Station",
    "type": "fuel",
    "lat": 13.574081,
    "lon": 123.15458
  },
  {
    "name": "Gaite Service Station",
    "type": "fuel",
    "lat": 13.572153,
    "lon": 123.150828
  },
  {
    "name": "Gas Station",
    "type": "fuel",
    "lat": 12.498802,
    "lon": 124.64142
  },
  {
    "name": "Gas Station",
    "type": "fuel",
    "lat": 14.104381,
    "lon": 122.872135
  },
  {
    "name": "Gas Station",
    "type": "fuel",
    "lat": 13.621825,
    "lon": 123.174668
  },
  {
    "name": "Gas station",
    "type": "fuel",
    "lat": 13.047297,
    "lon": 123.455848
  },
  {
    "name": "Gas station",
    "type": "fuel",
    "lat": 13.258579,
    "lon": 123.499277
  },
  {
    "name": "GasLane",
    "type": "fuel",
    "lat": 13.66129,
    "lon": 123.265927
  },
  {
    "name": "Gasko",
    "type": "fuel",
    "lat": 12.916657,
    "lon": 124.123139
  },
  {
    "name": "Gasolinahan ni Juan",
    "type": "fuel",
    "lat": 13.559024,
    "lon": 123.378056
  },
  {
    "name": "Gazbay",
    "type": "fuel",
    "lat": 13.560413,
    "lon": 123.374886
  },
  {
    "name": "Getta Fuel",
    "type": "fuel",
    "lat": 13.568397,
    "lon": 123.266777
  },
  {
    "name": "Golden Gas",
    "type": "fuel",
    "lat": 14.101566,
    "lon": 122.954219
  },
  {
    "name": "HP Fuel Station",
    "type": "fuel",
    "lat": 13.491638,
    "lon": 123.325678
  },
  {
    "name": "JCT Oil",
    "type": "fuel",
    "lat": 13.611436,
    "lon": 123.249187
  },
  {
    "name": "JCT Oil",
    "type": "fuel",
    "lat": 13.568485,
    "lon": 123.146589
  },
  {
    "name": "JL Fuel",
    "type": "fuel",
    "lat": 13.102845,
    "lon": 123.685341
  },
  {
    "name": "JPC Energy",
    "type": "fuel",
    "lat": 13.239061,
    "lon": 123.531607
  },
  {
    "name": "Jaben",
    "type": "fuel",
    "lat": 13.161189,
    "lon": 123.597504
  },
  {
    "name": "Jacem",
    "type": "fuel",
    "lat": 13.188716,
    "lon": 123.607661
  },
  {
    "name": "Jacem Gas Station",
    "type": "fuel",
    "lat": 13.237571,
    "lon": 123.547699
  },
  {
    "name": "Jamant Fuel Station",
    "type": "fuel",
    "lat": 13.55991,
    "lon": 123.272118
  },
  {
    "name": "Jared Fuel Station",
    "type": "fuel",
    "lat": 13.413076,
    "lon": 123.443832
  },
  {
    "name": "Jct Oil",
    "type": "fuel",
    "lat": 13.40304,
    "lon": 123.373894
  },
  {
    "name": "Jecron",
    "type": "fuel",
    "lat": 13.153797,
    "lon": 123.594893
  },
  {
    "name": "Jetti",
    "type": "fuel",
    "lat": 13.409759,
    "lon": 123.372068
  },
  {
    "name": "Jetti",
    "type": "fuel",
    "lat": 13.348458,
    "lon": 123.732152
  },
  {
    "name": "Jetti",
    "type": "fuel",
    "lat": 13.146993,
    "lon": 123.743591
  },
  {
    "name": "Jetti",
    "type": "fuel",
    "lat": 13.634449,
    "lon": 123.18549
  },
  {
    "name": "Jetti",
    "type": "fuel",
    "lat": 14.151739,
    "lon": 122.834652
  },
  {
    "name": "Jetti",
    "type": "fuel",
    "lat": 14.124817,
    "lon": 122.941648
  },
  {
    "name": "Jetti",
    "type": "fuel",
    "lat": 13.179702,
    "lon": 123.677291
  },
  {
    "name": "Jgm",
    "type": "fuel",
    "lat": 13.388668,
    "lon": 123.372288
  },
  {
    "name": "KGM",
    "type": "fuel",
    "lat": 13.747235,
    "lon": 122.973274
  },
  {
    "name": "KL Gas Station",
    "type": "fuel",
    "lat": 13.18739,
    "lon": 123.66438
  },
  {
    "name": "Kabise Fuel Station",
    "type": "fuel",
    "lat": 12.975873,
    "lon": 124.026696
  },
  {
    "name": "Kazel Trading",
    "type": "fuel",
    "lat": 13.143644,
    "lon": 123.74342
  },
  {
    "name": "Kobian Mdsg.",
    "type": "fuel",
    "lat": 13.771611,
    "lon": 122.977491
  },
  {
    "name": "LFCE Petron",
    "type": "fuel",
    "lat": 12.490045,
    "lon": 124.638535
  },
  {
    "name": "LNZ",
    "type": "fuel",
    "lat": 13.633889,
    "lon": 123.185945
  },
  {
    "name": "Lahaha Gasoline Station",
    "type": "fuel",
    "lat": 13.468357,
    "lon": 123.359162
  },
  {
    "name": "Ligao-Cosco",
    "type": "fuel",
    "lat": 13.246268,
    "lon": 123.520089
  },
  {
    "name": "MAB Gas Station",
    "type": "fuel",
    "lat": 13.317701,
    "lon": 123.233022
  },
  {
    "name": "MBG Gas & Hotel",
    "type": "fuel",
    "lat": 13.180915,
    "lon": 123.635441
  },
  {
    "name": "MBG Gas Station",
    "type": "fuel",
    "lat": 13.513623,
    "lon": 123.302047
  },
  {
    "name": "MCKY",
    "type": "fuel",
    "lat": 13.558084,
    "lon": 123.372293
  },
  {
    "name": "MMJ",
    "type": "fuel",
    "lat": 14.108281,
    "lon": 122.955855
  },
  {
    "name": "Mab",
    "type": "fuel",
    "lat": 13.179698,
    "lon": 123.460644
  },
  {
    "name": "Mab Gas Station",
    "type": "fuel",
    "lat": 13.031506,
    "lon": 123.445767
  },
  {
    "name": "Matam Power",
    "type": "fuel",
    "lat": 13.775708,
    "lon": 122.867965
  },
  {
    "name": "MaxiFuels",
    "type": "fuel",
    "lat": 13.156853,
    "lon": 123.718408
  },
  {
    "name": "Mayon Intergas",
    "type": "fuel",
    "lat": 13.133802,
    "lon": 123.733521
  },
  {
    "name": "Mayon Petroleum",
    "type": "fuel",
    "lat": 13.157534,
    "lon": 123.719564
  },
  {
    "name": "Mega Gas",
    "type": "fuel",
    "lat": 14.115079,
    "lon": 122.960711
  },
  {
    "name": "Mega Gas",
    "type": "fuel",
    "lat": 14.126631,
    "lon": 122.937808
  },
  {
    "name": "Mega Prime",
    "type": "fuel",
    "lat": 13.617086,
    "lon": 123.229428
  },
  {
    "name": "Megagas",
    "type": "fuel",
    "lat": 14.111481,
    "lon": 122.955836
  },
  {
    "name": "Milaor Fuel Station",
    "type": "fuel",
    "lat": 13.601977,
    "lon": 123.178685
  },
  {
    "name": "Mile Age",
    "type": "fuel",
    "lat": 14.106797,
    "lon": 122.956315
  },
  {
    "name": "Mile Age",
    "type": "fuel",
    "lat": 13.779147,
    "lon": 122.980621
  },
  {
    "name": "MileAge Gasoline Station",
    "type": "fuel",
    "lat": 13.698375,
    "lon": 123.518504
  },
  {
    "name": "Moban",
    "type": "fuel",
    "lat": 13.408181,
    "lon": 123.374697
  },
  {
    "name": "NN5 Fuel Station",
    "type": "fuel",
    "lat": 13.360516,
    "lon": 123.734922
  },
  {
    "name": "Naga Intergas",
    "type": "fuel",
    "lat": 13.623177,
    "lon": 123.18083
  },
  {
    "name": "Opancia Gas Station",
    "type": "fuel",
    "lat": 13.691881,
    "lon": 123.068986
  },
  {
    "name": "Orient Fuel",
    "type": "fuel",
    "lat": 13.177648,
    "lon": 123.644186
  },
  {
    "name": "POWERFUELS",
    "type": "fuel",
    "lat": 13.711202,
    "lon": 123.224373
  },
  {
    "name": "Penaflor Fuel Engine",
    "type": "fuel",
    "lat": 13.452292,
    "lon": 123.373405
  },
  {
    "name": "Petro Gazz",
    "type": "fuel",
    "lat": 13.420066,
    "lon": 123.421011
  },
  {
    "name": "Petro Gazz",
    "type": "fuel",
    "lat": 13.339233,
    "lon": 123.734538
  },
  {
    "name": "Petro Gazz",
    "type": "fuel",
    "lat": 13.241679,
    "lon": 123.529595
  },
  {
    "name": "Petro Gazz",
    "type": "fuel",
    "lat": 14.071776,
    "lon": 122.961763
  },
  {
    "name": "Petro Gazz",
    "type": "fuel",
    "lat": 13.196303,
    "lon": 123.755255
  },
  {
    "name": "Petro Gazz",
    "type": "fuel",
    "lat": 14.111218,
    "lon": 123.00131
  },
  {
    "name": "Petro Gazz Nabua",
    "type": "fuel",
    "lat": 13.414782,
    "lon": 123.390456
  },
  {
    "name": "Petrol",
    "type": "fuel",
    "lat": 13.420866,
    "lon": 123.415469
  },
  {
    "name": "Petrol",
    "type": "fuel",
    "lat": 13.436246,
    "lon": 123.410088
  },
  {
    "name": "Petron",
    "type": "fuel",
    "lat": 13.148988,
    "lon": 123.717041
  },
  {
    "name": "Petron",
    "type": "fuel",
    "lat": 12.973236,
    "lon": 124.008012
  },
  {
    "name": "Petron",
    "type": "fuel",
    "lat": 12.974444,
    "lon": 123.988267
  },
  {
    "name": "Petron",
    "type": "fuel",
    "lat": 12.704241,
    "lon": 124.029472
  },
  {
    "name": "Petron",
    "type": "fuel",
    "lat": 12.946948,
    "lon": 124.051501
  },
  {
    "name": "Petron",
    "type": "fuel",
    "lat": 12.906152,
    "lon": 123.594207
  },
  {
    "name": "Petron",
    "type": "fuel",
    "lat": 13.358927,
    "lon": 123.365693
  },
  {
    "name": "Petron",
    "type": "fuel",
    "lat": 13.987456,
    "lon": 124.134799
  },
  {
    "name": "Petron",
    "type": "fuel",
    "lat": 13.238037,
    "lon": 123.532573
  },
  {
    "name": "Petron",
    "type": "fuel",
    "lat": 13.288305,
    "lon": 123.490496
  },
  {
    "name": "Petron",
    "type": "fuel",
    "lat": 13.69337,
    "lon": 123.490535
  },
  {
    "name": "Petron",
    "type": "fuel",
    "lat": 12.977245,
    "lon": 124.015938
  },
  {
    "name": "Petron",
    "type": "fuel",
    "lat": 12.504121,
    "lon": 124.285737
  },
  {
    "name": "Petron",
    "type": "fuel",
    "lat": 14.172501,
    "lon": 122.908592
  },
  {
    "name": "Petron",
    "type": "fuel",
    "lat": 13.61762,
    "lon": 123.231342
  },
  {
    "name": "Petron",
    "type": "fuel",
    "lat": 13.576349,
    "lon": 123.065685
  },
  {
    "name": "Petron",
    "type": "fuel",
    "lat": 13.288509,
    "lon": 123.791832
  },
  {
    "name": "Petron",
    "type": "fuel",
    "lat": 13.610387,
    "lon": 123.210275
  },
  {
    "name": "Petron",
    "type": "fuel",
    "lat": 13.622765,
    "lon": 123.187795
  },
  {
    "name": "Petron",
    "type": "fuel",
    "lat": 13.156001,
    "lon": 123.717716
  },
  {
    "name": "Petron",
    "type": "fuel",
    "lat": 13.112952,
    "lon": 123.698802
  },
  {
    "name": "Petron",
    "type": "fuel",
    "lat": 13.189326,
    "lon": 123.753975
  },
  {
    "name": "Petron",
    "type": "fuel",
    "lat": 12.976333,
    "lon": 124.025546
  },
  {
    "name": "Petron",
    "type": "fuel",
    "lat": 13.355808,
    "lon": 123.730277
  },
  {
    "name": "Petron",
    "type": "fuel",
    "lat": 13.622337,
    "lon": 123.193101
  },
  {
    "name": "Petron",
    "type": "fuel",
    "lat": 13.615544,
    "lon": 123.19134
  },
  {
    "name": "Petron",
    "type": "fuel",
    "lat": 13.625796,
    "lon": 123.20084
  },
  {
    "name": "Petron",
    "type": "fuel",
    "lat": 14.114667,
    "lon": 122.956626
  },
  {
    "name": "Petron",
    "type": "fuel",
    "lat": 14.120059,
    "lon": 122.949293
  },
  {
    "name": "Petron",
    "type": "fuel",
    "lat": 12.501038,
    "lon": 124.646242
  },
  {
    "name": "Petron",
    "type": "fuel",
    "lat": 13.668586,
    "lon": 123.01001
  },
  {
    "name": "Petron",
    "type": "fuel",
    "lat": 13.165791,
    "lon": 123.695423
  },
  {
    "name": "Petron",
    "type": "fuel",
    "lat": 13.19011,
    "lon": 123.602733
  },
  {
    "name": "Petron",
    "type": "fuel",
    "lat": 13.145115,
    "lon": 123.734413
  },
  {
    "name": "Petron",
    "type": "fuel",
    "lat": 13.313954,
    "lon": 123.2345
  },
  {
    "name": "Petron",
    "type": "fuel",
    "lat": 13.419302,
    "lon": 123.367993
  },
  {
    "name": "Petron",
    "type": "fuel",
    "lat": 13.144117,
    "lon": 123.752686
  },
  {
    "name": "Petron",
    "type": "fuel",
    "lat": 12.503151,
    "lon": 124.623445
  },
  {
    "name": "Petron",
    "type": "fuel",
    "lat": 13.748052,
    "lon": 122.974124
  },
  {
    "name": "Petron",
    "type": "fuel",
    "lat": 13.622815,
    "lon": 123.491964
  },
  {
    "name": "Petron",
    "type": "fuel",
    "lat": 13.567723,
    "lon": 123.267602
  },
  {
    "name": "Petron",
    "type": "fuel",
    "lat": 13.567104,
    "lon": 123.268085
  },
  {
    "name": "Petron",
    "type": "fuel",
    "lat": 13.406115,
    "lon": 123.327688
  },
  {
    "name": "Petron",
    "type": "fuel",
    "lat": 13.621337,
    "lon": 123.21164
  },
  {
    "name": "Petron",
    "type": "fuel",
    "lat": 13.087423,
    "lon": 123.696759
  },
  {
    "name": "Petron",
    "type": "fuel",
    "lat": 13.360331,
    "lon": 123.736443
  },
  {
    "name": "Petron",
    "type": "fuel",
    "lat": 13.223532,
    "lon": 123.758338
  },
  {
    "name": "Petron",
    "type": "fuel",
    "lat": 13.326177,
    "lon": 123.42689
  },
  {
    "name": "Petron Station",
    "type": "fuel",
    "lat": 13.362581,
    "lon": 123.727849
  },
  {
    "name": "Phoenix",
    "type": "fuel",
    "lat": 13.595672,
    "lon": 123.260215
  },
  {
    "name": "Phoenix",
    "type": "fuel",
    "lat": 13.157159,
    "lon": 123.719129
  },
  {
    "name": "Phoenix",
    "type": "fuel",
    "lat": 13.695984,
    "lon": 123.481691
  },
  {
    "name": "Phoenix",
    "type": "fuel",
    "lat": 13.18827,
    "lon": 123.661973
  },
  {
    "name": "Pinenoy Rollback Fuel Station",
    "type": "fuel",
    "lat": 13.401353,
    "lon": 123.316384
  },
  {
    "name": "Pitz Stop",
    "type": "fuel",
    "lat": 14.106187,
    "lon": 122.94955
  },
  {
    "name": "PowerZone",
    "type": "fuel",
    "lat": 13.596763,
    "lon": 124.101304
  },
  {
    "name": "Powermax Enterprises",
    "type": "fuel",
    "lat": 13.185546,
    "lon": 123.667991
  },
  {
    "name": "Powerzone",
    "type": "fuel",
    "lat": 13.580941,
    "lon": 124.215589
  },
  {
    "name": "Powerzone",
    "type": "fuel",
    "lat": 13.583592,
    "lon": 124.234045
  },
  {
    "name": "Powerzone",
    "type": "fuel",
    "lat": 13.581675,
    "lon": 124.227537
  },
  {
    "name": "Powerzone",
    "type": "fuel",
    "lat": 13.611213,
    "lon": 124.294537
  },
  {
    "name": "Powerzone",
    "type": "fuel",
    "lat": 13.586892,
    "lon": 124.238852
  },
  {
    "name": "Prime fuels",
    "type": "fuel",
    "lat": 13.419711,
    "lon": 123.298463
  },
  {
    "name": "Quantum Fuel Express",
    "type": "fuel",
    "lat": 13.355711,
    "lon": 123.710086
  },
  {
    "name": "Quantum Fuel Express",
    "type": "fuel",
    "lat": 13.365137,
    "lon": 123.726492
  },
  {
    "name": "Quick Fill",
    "type": "fuel",
    "lat": 13.617366,
    "lon": 123.230335
  },
  {
    "name": "RAMZ Golden Fuel",
    "type": "fuel",
    "lat": 13.606992,
    "lon": 123.249455
  },
  {
    "name": "RCF Centerpoint",
    "type": "fuel",
    "lat": 13.697272,
    "lon": 123.489234
  },
  {
    "name": "RCF Central Point",
    "type": "fuel",
    "lat": 13.763096,
    "lon": 123.868248
  },
  {
    "name": "RRT Gas Station",
    "type": "fuel",
    "lat": 14.069987,
    "lon": 122.9622
  },
  {
    "name": "Rank Oil Gas Station",
    "type": "fuel",
    "lat": 13.181129,
    "lon": 123.634252
  },
  {
    "name": "Remptrol",
    "type": "fuel",
    "lat": 13.791238,
    "lon": 122.82662
  },
  {
    "name": "SAFE",
    "type": "fuel",
    "lat": 13.575648,
    "lon": 123.066098
  },
  {
    "name": "SEAOIL",
    "type": "fuel",
    "lat": 13.706986,
    "lon": 123.211561
  },
  {
    "name": "Safe",
    "type": "fuel",
    "lat": 13.624263,
    "lon": 123.201177
  },
  {
    "name": "Seaoil",
    "type": "fuel",
    "lat": 12.851508,
    "lon": 123.996386
  },
  {
    "name": "Seaoil",
    "type": "fuel",
    "lat": 13.473097,
    "lon": 123.353848
  },
  {
    "name": "Seaoil",
    "type": "fuel",
    "lat": 13.541586,
    "lon": 123.283178
  },
  {
    "name": "Seaoil",
    "type": "fuel",
    "lat": 13.612625,
    "lon": 123.19411
  },
  {
    "name": "Seaoil",
    "type": "fuel",
    "lat": 13.60062,
    "lon": 123.253922
  },
  {
    "name": "Seaoil",
    "type": "fuel",
    "lat": 13.162662,
    "lon": 123.739731
  },
  {
    "name": "Seaoil",
    "type": "fuel",
    "lat": 13.289263,
    "lon": 123.757356
  },
  {
    "name": "Seaoil",
    "type": "fuel",
    "lat": 13.112211,
    "lon": 123.698369
  },
  {
    "name": "Seaoil",
    "type": "fuel",
    "lat": 13.369917,
    "lon": 123.723054
  },
  {
    "name": "Seaoil",
    "type": "fuel",
    "lat": 13.631847,
    "lon": 123.195899
  },
  {
    "name": "Seaoil",
    "type": "fuel",
    "lat": 13.296653,
    "lon": 123.471236
  },
  {
    "name": "Seaoil",
    "type": "fuel",
    "lat": 12.739544,
    "lon": 124.00169
  },
  {
    "name": "Seaoil",
    "type": "fuel",
    "lat": 12.977616,
    "lon": 124.009344
  },
  {
    "name": "Seaoil",
    "type": "fuel",
    "lat": 13.139254,
    "lon": 123.743958
  },
  {
    "name": "Seaoil",
    "type": "fuel",
    "lat": 13.558585,
    "lon": 123.272447
  },
  {
    "name": "Seaoil",
    "type": "fuel",
    "lat": 13.154465,
    "lon": 123.711984
  },
  {
    "name": "Seaoil",
    "type": "fuel",
    "lat": 13.643693,
    "lon": 123.18378
  },
  {
    "name": "Shell",
    "type": "fuel",
    "lat": 13.622989,
    "lon": 123.188663
  },
  {
    "name": "Shell",
    "type": "fuel",
    "lat": 12.494564,
    "lon": 124.636255
  },
  {
    "name": "Shell",
    "type": "fuel",
    "lat": 13.40691,
    "lon": 123.373461
  },
  {
    "name": "Shell",
    "type": "fuel",
    "lat": 12.979338,
    "lon": 123.982879
  },
  {
    "name": "Shell",
    "type": "fuel",
    "lat": 12.70367,
    "lon": 124.029006
  },
  {
    "name": "Shell",
    "type": "fuel",
    "lat": 13.14503,
    "lon": 123.752746
  },
  {
    "name": "Shell",
    "type": "fuel",
    "lat": 13.457201,
    "lon": 123.679453
  },
  {
    "name": "Shell",
    "type": "fuel",
    "lat": 13.591185,
    "lon": 123.26241
  },
  {
    "name": "Shell",
    "type": "fuel",
    "lat": 14.100957,
    "lon": 122.954899
  },
  {
    "name": "Shell",
    "type": "fuel",
    "lat": 13.577606,
    "lon": 123.064278
  },
  {
    "name": "Shell",
    "type": "fuel",
    "lat": 13.727213,
    "lon": 123.520078
  },
  {
    "name": "Shell",
    "type": "fuel",
    "lat": 13.403557,
    "lon": 123.335398
  },
  {
    "name": "Shell",
    "type": "fuel",
    "lat": 13.747316,
    "lon": 122.97384
  },
  {
    "name": "Shell",
    "type": "fuel",
    "lat": 13.559252,
    "lon": 123.380842
  },
  {
    "name": "Shell",
    "type": "fuel",
    "lat": 13.419176,
    "lon": 123.516473
  },
  {
    "name": "Shell",
    "type": "fuel",
    "lat": 13.178142,
    "lon": 123.6436
  },
  {
    "name": "Shell",
    "type": "fuel",
    "lat": 13.597009,
    "lon": 123.257123
  },
  {
    "name": "Shell",
    "type": "fuel",
    "lat": 13.412316,
    "lon": 123.409686
  },
  {
    "name": "Shell",
    "type": "fuel",
    "lat": 13.112512,
    "lon": 123.698401
  },
  {
    "name": "Shell",
    "type": "fuel",
    "lat": 13.182798,
    "lon": 123.753389
  },
  {
    "name": "Shell",
    "type": "fuel",
    "lat": 12.975777,
    "lon": 124.027916
  },
  {
    "name": "Shell",
    "type": "fuel",
    "lat": 13.356145,
    "lon": 123.730186
  },
  {
    "name": "Shell",
    "type": "fuel",
    "lat": 13.631398,
    "lon": 123.196401
  },
  {
    "name": "Shell",
    "type": "fuel",
    "lat": 13.615505,
    "lon": 123.191958
  },
  {
    "name": "Shell",
    "type": "fuel",
    "lat": 13.620789,
    "lon": 123.209127
  },
  {
    "name": "Shell",
    "type": "fuel",
    "lat": 13.167191,
    "lon": 123.694233
  },
  {
    "name": "Shell",
    "type": "fuel",
    "lat": 13.646438,
    "lon": 123.18274
  },
  {
    "name": "Shell",
    "type": "fuel",
    "lat": 14.118643,
    "lon": 122.950833
  },
  {
    "name": "Shell",
    "type": "fuel",
    "lat": 13.598181,
    "lon": 123.178106
  },
  {
    "name": "Shell",
    "type": "fuel",
    "lat": 13.556678,
    "lon": 123.274077
  },
  {
    "name": "Shell",
    "type": "fuel",
    "lat": 13.24071,
    "lon": 123.539291
  },
  {
    "name": "Shell",
    "type": "fuel",
    "lat": 13.463404,
    "lon": 123.36397
  },
  {
    "name": "Shell",
    "type": "fuel",
    "lat": 13.14347,
    "lon": 123.752741
  },
  {
    "name": "Shell",
    "type": "fuel",
    "lat": 13.617005,
    "lon": 123.238014
  },
  {
    "name": "Shell",
    "type": "fuel",
    "lat": 13.421045,
    "lon": 123.413905
  },
  {
    "name": "Shell",
    "type": "fuel",
    "lat": 14.157188,
    "lon": 122.829287
  },
  {
    "name": "Shell",
    "type": "fuel",
    "lat": 13.285087,
    "lon": 123.491379
  },
  {
    "name": "Shell",
    "type": "fuel",
    "lat": 13.561004,
    "lon": 123.13595
  },
  {
    "name": "Shell",
    "type": "fuel",
    "lat": 13.7062,
    "lon": 123.204996
  },
  {
    "name": "Shell",
    "type": "fuel",
    "lat": 13.356951,
    "lon": 123.37643
  },
  {
    "name": "Shell",
    "type": "fuel",
    "lat": 13.418316,
    "lon": 123.400335
  },
  {
    "name": "Shell",
    "type": "fuel",
    "lat": 13.610955,
    "lon": 123.181361
  },
  {
    "name": "Silangan",
    "type": "fuel",
    "lat": 13.579633,
    "lon": 124.221513
  },
  {
    "name": "Silangan",
    "type": "fuel",
    "lat": 13.588117,
    "lon": 124.240309
  },
  {
    "name": "Silangan",
    "type": "fuel",
    "lat": 13.579942,
    "lon": 124.218227
  },
  {
    "name": "Sky City Fuel",
    "type": "fuel",
    "lat": 13.616655,
    "lon": 123.186836
  },
  {
    "name": "SkyCity Gas Express",
    "type": "fuel",
    "lat": 13.634277,
    "lon": 123.187129
  },
  {
    "name": "Speedway",
    "type": "fuel",
    "lat": 13.560921,
    "lon": 123.136976
  },
  {
    "name": "StandarGas Corporation",
    "type": "fuel",
    "lat": 13.156121,
    "lon": 123.743538
  },
  {
    "name": "Sto. Niño Fuel Center",
    "type": "fuel",
    "lat": 14.176795,
    "lon": 122.906119
  },
  {
    "name": "Super B",
    "type": "fuel",
    "lat": 13.402924,
    "lon": 123.374364
  },
  {
    "name": "Super Euro Xprez",
    "type": "fuel",
    "lat": 13.558565,
    "lon": 123.282362
  },
  {
    "name": "Total",
    "type": "fuel",
    "lat": 13.656433,
    "lon": 123.502346
  },
  {
    "name": "Total",
    "type": "fuel",
    "lat": 14.11535,
    "lon": 122.940924
  },
  {
    "name": "Traveller's",
    "type": "fuel",
    "lat": 13.762565,
    "lon": 122.962591
  },
  {
    "name": "TurBel Ruins",
    "type": "fuel",
    "lat": 13.398581,
    "lon": 123.353274
  },
  {
    "name": "Turbo",
    "type": "fuel",
    "lat": 13.67008,
    "lon": 123.009274
  },
  {
    "name": "Ultragas",
    "type": "fuel",
    "lat": 13.58888,
    "lon": 124.199495
  },
  {
    "name": "VEtroil",
    "type": "fuel",
    "lat": 13.794567,
    "lon": 122.829766
  },
  {
    "name": "VFuels",
    "type": "fuel",
    "lat": 13.643652,
    "lon": 123.024557
  },
  {
    "name": "VGas",
    "type": "fuel",
    "lat": 13.816121,
    "lon": 123.328746
  },
  {
    "name": "VGas",
    "type": "fuel",
    "lat": 13.716975,
    "lon": 123.247105
  },
  {
    "name": "VLars",
    "type": "fuel",
    "lat": 13.790183,
    "lon": 122.823162
  },
  {
    "name": "Vinzons Gas Station",
    "type": "fuel",
    "lat": 14.174659,
    "lon": 122.907158
  },
  {
    "name": "Winstart",
    "type": "fuel",
    "lat": 13.419487,
    "lon": 123.412749
  },
  {
    "name": "Xtrm Power Petroleum",
    "type": "fuel",
    "lat": 12.975851,
    "lon": 124.025397
  },
  {
    "name": "YNAR G Gas Station",
    "type": "fuel",
    "lat": 13.397953,
    "lon": 123.374924
  },
  {
    "name": "ZT Oil",
    "type": "fuel",
    "lat": 13.562889,
    "lon": 123.278367
  },
  {
    "name": "e-Petrol",
    "type": "fuel",
    "lat": 13.288355,
    "lon": 123.490732
  },
  {
    "name": "elkan Gas",
    "type": "fuel",
    "lat": 13.255381,
    "lon": 123.575949
  },
  {
    "name": "gas",
    "type": "fuel",
    "lat": 12.975514,
    "lon": 124.025874
  },
  {
    "name": "3rd MCTC Libmanan-Cabusao",
    "type": "government",
    "lat": 13.698929,
    "lon": 123.060163
  },
  {
    "name": "ASA PHIL",
    "type": "government",
    "lat": 14.175724,
    "lon": 122.903865
  },
  {
    "name": "Abas Barangay Hall",
    "type": "government",
    "lat": 12.964724,
    "lon": 123.676738
  },
  {
    "name": "Abucay Barangay Hall",
    "type": "government",
    "lat": 12.980219,
    "lon": 123.65147
  },
  {
    "name": "Agricultural Training Institute",
    "type": "government",
    "lat": 13.568226,
    "lon": 123.268639
  },
  {
    "name": "Albay Provincial Fisheries Office",
    "type": "government",
    "lat": 13.36365,
    "lon": 123.731273
  },
  {
    "name": "Albay Provincial Operations Office",
    "type": "government",
    "lat": 13.140281,
    "lon": 123.735161
  },
  {
    "name": "Arboretum and Seedlings Nursery",
    "type": "government",
    "lat": 13.584447,
    "lon": 123.264505
  },
  {
    "name": "BFAR Albay Provincial Office",
    "type": "government",
    "lat": 13.370901,
    "lon": 123.722361
  },
  {
    "name": "BICOL one stop service center for OFW",
    "type": "government",
    "lat": 13.145737,
    "lon": 123.749851
  },
  {
    "name": "BIR Annex",
    "type": "government",
    "lat": 13.153825,
    "lon": 123.743241
  },
  {
    "name": "BIR RDO 68 Sorsogon",
    "type": "government",
    "lat": 12.982097,
    "lon": 124.02299
  },
  {
    "name": "BLGU San Isidro New Government Center",
    "type": "government",
    "lat": 13.445795,
    "lon": 123.405522
  },
  {
    "name": "Baao Municipal Health Office",
    "type": "government",
    "lat": 13.453382,
    "lon": 123.366685
  },
  {
    "name": "Bacon District Hall",
    "type": "government",
    "lat": 13.039095,
    "lon": 124.041209
  },
  {
    "name": "Bagamanoc Municipal Agricultural Office",
    "type": "government",
    "lat": 13.937347,
    "lon": 124.289178
  },
  {
    "name": "Bagamanoc Municipal Hall",
    "type": "government",
    "lat": 13.941141,
    "lon": 124.288895
  },
  {
    "name": "Bagamanoc Planning Office",
    "type": "government",
    "lat": 13.941259,
    "lon": 124.288751
  },
  {
    "name": "Bagasbas Barangay Hall",
    "type": "government",
    "lat": 14.137198,
    "lon": 122.981603
  },
  {
    "name": "Balite Barangay Disaster Risk Reduction and Management Committee",
    "type": "government",
    "lat": 13.549235,
    "lon": 124.159161
  },
  {
    "name": "Balite Local Government Unit",
    "type": "government",
    "lat": 13.549224,
    "lon": 124.159178
  },
  {
    "name": "Bantayan Barangay Hall",
    "type": "government",
    "lat": 12.849378,
    "lon": 123.731011
  },
  {
    "name": "Banuyo Barangay Hall",
    "type": "government",
    "lat": 12.92502,
    "lon": 123.674604
  },
  {
    "name": "Barangay 1 Hall",
    "type": "government",
    "lat": 12.422265,
    "lon": 124.183637
  },
  {
    "name": "Barangay 3 Hall",
    "type": "government",
    "lat": 12.422176,
    "lon": 124.180852
  },
  {
    "name": "Barangay 4 Hall",
    "type": "government",
    "lat": 12.424582,
    "lon": 124.181185
  },
  {
    "name": "Barangay 5 Hall",
    "type": "government",
    "lat": 12.425234,
    "lon": 124.180664
  },
  {
    "name": "Barangay Hall Brgy. VI",
    "type": "government",
    "lat": 14.119144,
    "lon": 122.958812
  },
  {
    "name": "Barangay IV Hall - Daet",
    "type": "government",
    "lat": 14.117218,
    "lon": 122.94911
  },
  {
    "name": "Barangay Office Oro Site",
    "type": "government",
    "lat": 13.149844,
    "lon": 123.751001
  },
  {
    "name": "Barangay VIII Hall - Daet",
    "type": "government",
    "lat": 14.113636,
    "lon": 122.958386
  },
  {
    "name": "Baras Municipal Disaster Risk Reduction Management Office",
    "type": "government",
    "lat": 13.658949,
    "lon": 124.371373
  },
  {
    "name": "Baras Municipal Hall",
    "type": "government",
    "lat": 13.658786,
    "lon": 124.371566
  },
  {
    "name": "Baras Municipal Health Office",
    "type": "government",
    "lat": 13.658874,
    "lon": 124.371528
  },
  {
    "name": "Basud Municipal Health Office",
    "type": "government",
    "lat": 14.070744,
    "lon": 122.960936
  },
  {
    "name": "Batuan Municipal Hall",
    "type": "government",
    "lat": 12.420813,
    "lon": 123.780323
  },
  {
    "name": "Bayasong Barangay Hall",
    "type": "government",
    "lat": 12.987535,
    "lon": 123.68325
  },
  {
    "name": "Bayawas Barangay Hall",
    "type": "government",
    "lat": 12.99344,
    "lon": 123.698031
  },
  {
    "name": "Baybay Barangay Hall",
    "type": "government",
    "lat": 12.505755,
    "lon": 124.640959
  },
  {
    "name": "Baybay-Dagat Barangay Hall",
    "type": "government",
    "lat": 12.484881,
    "lon": 123.764091
  },
  {
    "name": "Binanuahan Barangay Hall",
    "type": "government",
    "lat": 12.922986,
    "lon": 123.675581
  },
  {
    "name": "Bobon Disaster Risk Reduction and Management Office (MDRRMO)",
    "type": "government",
    "lat": 12.527628,
    "lon": 124.563074
  },
  {
    "name": "Bobon Municipal Internet/Library (Information Center)",
    "type": "government",
    "lat": 12.527612,
    "lon": 124.563183
  },
  {
    "name": "Bobon Municipal Social Welfare and Development Office (MSWDO)",
    "type": "government",
    "lat": 12.527606,
    "lon": 124.562978
  },
  {
    "name": "Bonga Barangay hall",
    "type": "government",
    "lat": 13.281701,
    "lon": 123.758545
  },
  {
    "name": "Boy Scouts of the Philippines",
    "type": "government",
    "lat": 12.500538,
    "lon": 124.637853
  },
  {
    "name": "Brgy. Tanod Office",
    "type": "government",
    "lat": 13.61859,
    "lon": 123.181734
  },
  {
    "name": "Bula Health Office",
    "type": "government",
    "lat": 13.469311,
    "lon": 123.277926
  },
  {
    "name": "Bula Municipal Hall",
    "type": "government",
    "lat": 13.469537,
    "lon": 123.277833
  },
  {
    "name": "Bula Municipal Waterworks System",
    "type": "government",
    "lat": 13.469433,
    "lon": 123.278171
  },
  {
    "name": "Bulwagan ng Katarungan",
    "type": "government",
    "lat": 12.971347,
    "lon": 124.000404
  },
  {
    "name": "Bulwagan ng mga Guro",
    "type": "government",
    "lat": 12.500769,
    "lon": 124.637683
  },
  {
    "name": "Bureau of Fire Protection",
    "type": "government",
    "lat": 13.625076,
    "lon": 123.199363
  },
  {
    "name": "Bureau of Fire Protection",
    "type": "government",
    "lat": 13.635874,
    "lon": 123.495266
  },
  {
    "name": "Bureau of Fire Protection Albay Provincial Office",
    "type": "government",
    "lat": 13.168054,
    "lon": 123.753133
  },
  {
    "name": "Bureau of Fire Protection Masbate",
    "type": "government",
    "lat": 13.316996,
    "lon": 123.233305
  },
  {
    "name": "Bureau of Fisheries and Aquatic Resources - Regional Office No. 5",
    "type": "government",
    "lat": 13.499874,
    "lon": 123.30247
  },
  {
    "name": "Bureau of Fisheries and Aquatic Resources - Regional Office No. 5",
    "type": "government",
    "lat": 13.500488,
    "lon": 123.303676
  },
  {
    "name": "Bureau of Immigration",
    "type": "government",
    "lat": 13.142902,
    "lon": 123.752224
  },
  {
    "name": "Bureau of Internal Revenue",
    "type": "government",
    "lat": 14.135458,
    "lon": 122.924219
  },
  {
    "name": "Bureau of Internal Revenue",
    "type": "government",
    "lat": 13.142602,
    "lon": 123.750687
  },
  {
    "name": "Bureau of Jail Management & Penology",
    "type": "government",
    "lat": 13.635812,
    "lon": 123.495473
  },
  {
    "name": "Bureau of Local Government Finance Region V",
    "type": "government",
    "lat": 13.165609,
    "lon": 123.753406
  },
  {
    "name": "Bureau of the Treasury Region V",
    "type": "government",
    "lat": 13.168218,
    "lon": 123.752708
  },
  {
    "name": "CGDI",
    "type": "government",
    "lat": 13.615238,
    "lon": 123.225611
  },
  {
    "name": "COMELEC Sorsogon",
    "type": "government",
    "lat": 12.98171,
    "lon": 124.021975
  },
  {
    "name": "Cabiguan Barangay Hall",
    "type": "government",
    "lat": 12.992053,
    "lon": 123.6413
  },
  {
    "name": "Cablangan Patrol Base",
    "type": "government",
    "lat": 12.494168,
    "lon": 124.78917
  },
  {
    "name": "Cagdongon Barangay Hall",
    "type": "government",
    "lat": 12.965494,
    "lon": 123.655435
  },
  {
    "name": "Calongay Barangay Hall",
    "type": "government",
    "lat": 12.940696,
    "lon": 123.672384
  },
  {
    "name": "Calpi Barangay Hall",
    "type": "government",
    "lat": 12.932763,
    "lon": 123.721595
  },
  {
    "name": "Camarines Norte Lowland Rainfed Research Station",
    "type": "government",
    "lat": 14.084974,
    "lon": 122.93505
  },
  {
    "name": "Camarines Norte Provincial Fisheries Office",
    "type": "government",
    "lat": 14.110419,
    "lon": 123.009592
  },
  {
    "name": "Camarines Sur 5th District Engineering Office",
    "type": "government",
    "lat": 13.484146,
    "lon": 123.339429
  },
  {
    "name": "Capul Municipal Health Office",
    "type": "government",
    "lat": 12.423165,
    "lon": 124.182428
  },
  {
    "name": "Caragumihan Barangay Disaster Risk Reduction and Management Committee",
    "type": "government",
    "lat": 13.671283,
    "lon": 124.368834
  },
  {
    "name": "Caragumihan Local Government Unit",
    "type": "government",
    "lat": 13.671309,
    "lon": 124.36882
  },
  {
    "name": "Casiguran Municipal Hall",
    "type": "government",
    "lat": 12.872326,
    "lon": 124.008287
  },
  {
    "name": "Catamlangan Barangay Hall",
    "type": "government",
    "lat": 13.01447,
    "lon": 123.646065
  },
  {
    "name": "Catarman Municipal Hall",
    "type": "government",
    "lat": 12.498999,
    "lon": 124.637744
  },
  {
    "name": "City Agriculture Office",
    "type": "government",
    "lat": 13.240783,
    "lon": 123.536565
  },
  {
    "name": "City Engineering's Office",
    "type": "government",
    "lat": 13.141421,
    "lon": 123.759991
  },
  {
    "name": "City Health Office",
    "type": "government",
    "lat": 13.625383,
    "lon": 123.198784
  },
  {
    "name": "City Social Welfare and Development Office",
    "type": "government",
    "lat": 13.359792,
    "lon": 123.730918
  },
  {
    "name": "Civil Service Commision Region V",
    "type": "government",
    "lat": 13.174053,
    "lon": 123.751667
  },
  {
    "name": "Civil Service Commission Sorsogon",
    "type": "government",
    "lat": 12.981575,
    "lon": 124.022651
  },
  {
    "name": "Cluster Operations Office Albay",
    "type": "government",
    "lat": 13.138284,
    "lon": 123.735289
  },
  {
    "name": "Coast Guard Sub-Station Allen",
    "type": "government",
    "lat": 12.50151,
    "lon": 124.281657
  },
  {
    "name": "Comapo-capo Barangay Hall",
    "type": "government",
    "lat": 13.002103,
    "lon": 123.684897
  },
  {
    "name": "Commission on Audit Regional Office V",
    "type": "government",
    "lat": 13.166777,
    "lon": 123.752842
  },
  {
    "name": "Commission on Elections Region V",
    "type": "government",
    "lat": 13.164759,
    "lon": 123.754024
  },
  {
    "name": "Commission on Human Rights Region V",
    "type": "government",
    "lat": 13.164488,
    "lon": 123.754101
  },
  {
    "name": "D.A RFO 5",
    "type": "government",
    "lat": 13.56345,
    "lon": 123.269422
  },
  {
    "name": "D.A RFO5",
    "type": "government",
    "lat": 13.561288,
    "lon": 123.269067
  },
  {
    "name": "DECA Office",
    "type": "government",
    "lat": 13.622172,
    "lon": 123.194113
  },
  {
    "name": "DENR Community Environment and Natural Resources Office - San Jacinto",
    "type": "government",
    "lat": 12.568773,
    "lon": 123.722842
  },
  {
    "name": "DENR PENRO",
    "type": "government",
    "lat": 13.145975,
    "lon": 123.753323
  },
  {
    "name": "DENR PENRO Extension Office",
    "type": "government",
    "lat": 12.989545,
    "lon": 123.745746
  },
  {
    "name": "DENR-PENRO Cam. Sur",
    "type": "government",
    "lat": 13.622917,
    "lon": 123.196437
  },
  {
    "name": "DENR-PENRO Catanduanes",
    "type": "government",
    "lat": 13.578352,
    "lon": 124.214405
  },
  {
    "name": "DEPED Northern Samar Division",
    "type": "government",
    "lat": 12.500655,
    "lon": 124.637489
  },
  {
    "name": "DFA Legazpi City",
    "type": "government",
    "lat": 13.145867,
    "lon": 123.749821
  },
  {
    "name": "DILG",
    "type": "government",
    "lat": 13.614752,
    "lon": 123.182606
  },
  {
    "name": "DILG",
    "type": "government",
    "lat": 14.173636,
    "lon": 122.907835
  },
  {
    "name": "DILG",
    "type": "government",
    "lat": 13.138439,
    "lon": 123.740127
  },
  {
    "name": "DILG Sorsogon",
    "type": "government",
    "lat": 12.98189,
    "lon": 124.02252
  },
  {
    "name": "DOLE",
    "type": "government",
    "lat": 13.139095,
    "lon": 123.737355
  },
  {
    "name": "DOST-Pagasa Catarman",
    "type": "government",
    "lat": 12.505591,
    "lon": 124.628505
  },
  {
    "name": "DOST-Pagasa Daet",
    "type": "government",
    "lat": 14.128811,
    "lon": 122.982803
  },
  {
    "name": "DOST-Pagasa Legaspi",
    "type": "government",
    "lat": 13.150307,
    "lon": 123.728269
  },
  {
    "name": "DPWH Camarines Norte DEO",
    "type": "government",
    "lat": 14.104862,
    "lon": 122.955875
  },
  {
    "name": "DPWH Camarines Norte, Office of the Area Equipment Engineer",
    "type": "government",
    "lat": 14.104381,
    "lon": 122.955934
  },
  {
    "name": "DPWH Camarines Sur 5th DEO",
    "type": "government",
    "lat": 13.483935,
    "lon": 123.339343
  },
  {
    "name": "DPWH Catanduanes DEO",
    "type": "government",
    "lat": 13.578137,
    "lon": 124.215115
  },
  {
    "name": "DPWH Northern Samar 1st District Engineering Office",
    "type": "government",
    "lat": 12.501699,
    "lon": 124.636599
  },
  {
    "name": "DPWH Northern Samar 1st District Engineering Office",
    "type": "government",
    "lat": 12.486724,
    "lon": 124.637558
  },
  {
    "name": "DPWH Region V",
    "type": "government",
    "lat": 13.148558,
    "lon": 123.731476
  },
  {
    "name": "DSWD 4P's Cluster Office N. Samar",
    "type": "government",
    "lat": 12.50033,
    "lon": 124.640884
  },
  {
    "name": "DSWD Regional Office 5",
    "type": "government",
    "lat": 13.135294,
    "lon": 123.753404
  },
  {
    "name": "DTI Legazpi",
    "type": "government",
    "lat": 13.146293,
    "lon": 123.754075
  },
  {
    "name": "Daet DRRMO Operation Center",
    "type": "government",
    "lat": 14.115901,
    "lon": 122.955026
  },
  {
    "name": "Daet Legislative Building",
    "type": "government",
    "lat": 14.092544,
    "lon": 122.957653
  },
  {
    "name": "Dancalan Barangay Hall",
    "type": "government",
    "lat": 12.518987,
    "lon": 124.532914
  },
  {
    "name": "Danlog Barangay Hall",
    "type": "government",
    "lat": 13.033592,
    "lon": 123.714863
  },
  {
    "name": "Dao Barangay Hall",
    "type": "government",
    "lat": 12.922003,
    "lon": 123.674486
  },
  {
    "name": "Dapdap Barangay Hall",
    "type": "government",
    "lat": 12.87617,
    "lon": 123.723435
  },
  {
    "name": "Del Rosario Barangay Hall",
    "type": "government",
    "lat": 12.986141,
    "lon": 123.752834
  },
  {
    "name": "DepED Albay Division Office",
    "type": "government",
    "lat": 13.15692,
    "lon": 123.728965
  },
  {
    "name": "DepED Legazpi City Division Office",
    "type": "government",
    "lat": 13.140525,
    "lon": 123.735637
  },
  {
    "name": "DepEd Naga City Schools Division",
    "type": "government",
    "lat": 13.616279,
    "lon": 123.19009
  },
  {
    "name": "DepEd Northern Samar Division Office",
    "type": "government",
    "lat": 12.500608,
    "lon": 124.637301
  },
  {
    "name": "Department od Science and Technology DOST",
    "type": "government",
    "lat": 12.508577,
    "lon": 124.665836
  },
  {
    "name": "Department of Agrarian Reform",
    "type": "government",
    "lat": 13.154707,
    "lon": 123.749901
  },
  {
    "name": "Department of Agrarian Reform",
    "type": "government",
    "lat": 13.181798,
    "lon": 123.673543
  },
  {
    "name": "Department of Agrarian Reform Region V",
    "type": "government",
    "lat": 13.166778,
    "lon": 123.751844
  },
  {
    "name": "Department of Agrarian Reform Sorsogon",
    "type": "government",
    "lat": 12.982053,
    "lon": 124.022177
  },
  {
    "name": "Department of Agriculture",
    "type": "government",
    "lat": 13.563161,
    "lon": 123.269525
  },
  {
    "name": "Department of Agriculture - Regional Field Office No. 5",
    "type": "government",
    "lat": 13.563911,
    "lon": 123.268027
  },
  {
    "name": "Department of Budget and Management Region V",
    "type": "government",
    "lat": 13.166019,
    "lon": 123.752687
  },
  {
    "name": "Department of Education Region V",
    "type": "government",
    "lat": 13.163378,
    "lon": 123.752617
  },
  {
    "name": "Department of Environment and Natural Resources",
    "type": "government",
    "lat": 14.097967,
    "lon": 122.95688
  },
  {
    "name": "Department of Environment and Natural Resources Region V",
    "type": "government",
    "lat": 13.164145,
    "lon": 123.751855
  },
  {
    "name": "Department of Health - CN",
    "type": "government",
    "lat": 14.117502,
    "lon": 122.94446
  },
  {
    "name": "Department of Health Field Office Region V",
    "type": "government",
    "lat": 13.148145,
    "lon": 123.725656
  },
  {
    "name": "Department of Interior and Local Government",
    "type": "government",
    "lat": 12.499834,
    "lon": 124.6374
  },
  {
    "name": "Department of Public Works and Highways",
    "type": "government",
    "lat": 13.150527,
    "lon": 123.729548
  },
  {
    "name": "Department of Public Works and Highways Region V",
    "type": "government",
    "lat": 13.163046,
    "lon": 123.751642
  },
  {
    "name": "Department of Science and Technology Region V",
    "type": "government",
    "lat": 13.167255,
    "lon": 123.751845
  },
  {
    "name": "Department of Social Welfare and Development Region V",
    "type": "government",
    "lat": 13.168027,
    "lon": 123.752152
  },
  {
    "name": "Department of Tourism Region V",
    "type": "government",
    "lat": 13.163916,
    "lon": 123.752633
  },
  {
    "name": "Department of Trade and Industry",
    "type": "government",
    "lat": 13.622398,
    "lon": 123.192735
  },
  {
    "name": "Department of Trade and Industry Region V",
    "type": "government",
    "lat": 13.167693,
    "lon": 123.752212
  },
  {
    "name": "Deped NSD",
    "type": "government",
    "lat": 12.500784,
    "lon": 124.637409
  },
  {
    "name": "Disaster Risk Reduction Center",
    "type": "government",
    "lat": 13.593223,
    "lon": 123.248086
  },
  {
    "name": "Division of City Schools Sorsogon City",
    "type": "government",
    "lat": 12.981231,
    "lon": 124.02474
  },
  {
    "name": "Enjoy Realty",
    "type": "government",
    "lat": 13.639492,
    "lon": 123.202741
  },
  {
    "name": "Environmental Management Bureau V",
    "type": "government",
    "lat": 13.166128,
    "lon": 123.752137
  },
  {
    "name": "Esmerada Barangay Hall",
    "type": "government",
    "lat": 12.993074,
    "lon": 123.712227
  },
  {
    "name": "Esperanza Barangay Hall",
    "type": "government",
    "lat": 13.002262,
    "lon": 123.731039
  },
  {
    "name": "Food And Drug Administration Philippines Regional Field Office V",
    "type": "government",
    "lat": 13.148008,
    "lon": 123.726193
  },
  {
    "name": "GSIS",
    "type": "government",
    "lat": 13.61814,
    "lon": 123.236108
  },
  {
    "name": "GSIS Legazpi",
    "type": "government",
    "lat": 13.146201,
    "lon": 123.744179
  },
  {
    "name": "Garchitorena Municipal Hall",
    "type": "government",
    "lat": 13.884421,
    "lon": 123.70069
  },
  {
    "name": "Gigmoto Municipal Disaster Risk Reduction Management Office",
    "type": "government",
    "lat": 13.78098,
    "lon": 124.38945
  },
  {
    "name": "Gimaga Bgy. Hall",
    "type": "government",
    "lat": 13.703365,
    "lon": 123.476602
  },
  {
    "name": "Ginablan Barangay Hall",
    "type": "government",
    "lat": 12.956742,
    "lon": 123.701415
  },
  {
    "name": "Girl Scouts of the Philippines",
    "type": "government",
    "lat": 13.186046,
    "lon": 123.657813
  },
  {
    "name": "Gogon Barangay Hall",
    "type": "government",
    "lat": 13.577172,
    "lon": 124.224583
  },
  {
    "name": "Guiron Barangay Hall",
    "type": "government",
    "lat": 12.901276,
    "lon": 123.643728
  },
  {
    "name": "HLURB",
    "type": "government",
    "lat": 13.142273,
    "lon": 123.750983
  },
  {
    "name": "Hanawan Barangay Hall",
    "type": "government",
    "lat": 13.575217,
    "lon": 123.422975
  },
  {
    "name": "Headquarters Coast Guard District Bicol",
    "type": "government",
    "lat": 13.167606,
    "lon": 123.752711
  },
  {
    "name": "Home Development Mutual Fund Legazpi",
    "type": "government",
    "lat": 13.146237,
    "lon": 123.744533
  },
  {
    "name": "Inang Barangay Hall",
    "type": "government",
    "lat": 12.977416,
    "lon": 123.739074
  },
  {
    "name": "Inapugan Barangay Hall",
    "type": "government",
    "lat": 12.872504,
    "lon": 123.6962
  },
  {
    "name": "LGU Mondragon",
    "type": "government",
    "lat": 12.517538,
    "lon": 124.75141
  },
  {
    "name": "LTO District Office Region 5",
    "type": "government",
    "lat": 13.626255,
    "lon": 123.197812
  },
  {
    "name": "LTO Sorsogon City District Office",
    "type": "government",
    "lat": 12.981709,
    "lon": 124.027991
  },
  {
    "name": "Labo Municipal Hall",
    "type": "government",
    "lat": 14.154143,
    "lon": 122.830233
  },
  {
    "name": "Labo Municipal Health Office",
    "type": "government",
    "lat": 14.154304,
    "lon": 122.830422
  },
  {
    "name": "Labo Rural Health Unit Ⅰ",
    "type": "government",
    "lat": 14.154357,
    "lon": 122.830306
  },
  {
    "name": "Labo Social Welfare & Development Office",
    "type": "government",
    "lat": 14.154397,
    "lon": 122.830188
  },
  {
    "name": "Land Registration Authority",
    "type": "government",
    "lat": 13.145726,
    "lon": 123.744573
  },
  {
    "name": "Land Transporation Office",
    "type": "government",
    "lat": 13.574176,
    "lon": 124.20842
  },
  {
    "name": "Land Transportation Franchising and Regulatory Board Region V",
    "type": "government",
    "lat": 13.169167,
    "lon": 123.751835
  },
  {
    "name": "Land Transportation Office",
    "type": "government",
    "lat": 12.506012,
    "lon": 124.628695
  },
  {
    "name": "Land Transportation Office",
    "type": "government",
    "lat": 13.619606,
    "lon": 123.180494
  },
  {
    "name": "Land Transportation Office",
    "type": "government",
    "lat": 13.14036,
    "lon": 123.734445
  },
  {
    "name": "Land Transportation Office",
    "type": "government",
    "lat": 13.370747,
    "lon": 123.722137
  },
  {
    "name": "Land Transportation Office (Partido District)",
    "type": "government",
    "lat": 13.635539,
    "lon": 123.495779
  },
  {
    "name": "Land Transportation Office - Pili Extension Office",
    "type": "government",
    "lat": 13.594591,
    "lon": 123.25989
  },
  {
    "name": "Land Transportation Office Regional Office V",
    "type": "government",
    "lat": 13.16943,
    "lon": 123.752059
  },
  {
    "name": "Land Transportation Office(LTO-Legazpi)",
    "type": "government",
    "lat": 13.143999,
    "lon": 123.760063
  },
  {
    "name": "Legazpi City Hall",
    "type": "government",
    "lat": 13.138132,
    "lon": 123.734586
  },
  {
    "name": "Legazpi City Health Department Office",
    "type": "government",
    "lat": 13.138331,
    "lon": 123.735011
  },
  {
    "name": "Legazpi City Water District",
    "type": "government",
    "lat": 13.148354,
    "lon": 123.747724
  },
  {
    "name": "Libmanan Municipal Hall",
    "type": "government",
    "lat": 13.694489,
    "lon": 123.060084
  },
  {
    "name": "Ligao City Agriculture Office",
    "type": "government",
    "lat": 13.241003,
    "lon": 123.536336
  },
  {
    "name": "Lipason Barangay Hall",
    "type": "government",
    "lat": 12.956796,
    "lon": 123.641118
  },
  {
    "name": "Lourdes Barangay Hall",
    "type": "government",
    "lat": 13.027575,
    "lon": 123.687176
  },
  {
    "name": "Lubiano Barangay Hall",
    "type": "government",
    "lat": 13.000233,
    "lon": 123.718504
  },
  {
    "name": "Lumbang Barangay Hall",
    "type": "government",
    "lat": 12.932913,
    "lon": 123.656353
  },
  {
    "name": "Lungib Barangay Hall",
    "type": "government",
    "lat": 12.891378,
    "lon": 123.717628
  },
  {
    "name": "MDRRMO Polangui",
    "type": "government",
    "lat": 13.292871,
    "lon": 123.484741
  },
  {
    "name": "MDRRMO Vinzons",
    "type": "government",
    "lat": 14.173916,
    "lon": 122.90795
  },
  {
    "name": "MSWD Polangui",
    "type": "government",
    "lat": 13.292847,
    "lon": 123.484827
  },
  {
    "name": "Mabanate Barangay Hall",
    "type": "government",
    "lat": 12.955161,
    "lon": 123.672605
  },
  {
    "name": "Malbog Barangay Hall",
    "type": "government",
    "lat": 12.948808,
    "lon": 123.76244
  },
  {
    "name": "Man-Ogob Barangay Hall",
    "type": "government",
    "lat": 14.106454,
    "lon": 122.882525
  },
  {
    "name": "Marifosque Barangay Hall",
    "type": "government",
    "lat": 12.924903,
    "lon": 123.668439
  },
  {
    "name": "Maritime Industry Authority Region V",
    "type": "government",
    "lat": 13.16835,
    "lon": 123.752242
  },
  {
    "name": "Matnog Municipal Hall",
    "type": "government",
    "lat": 12.587096,
    "lon": 124.085376
  },
  {
    "name": "Matnog Municipal Tourism Office",
    "type": "government",
    "lat": 12.585569,
    "lon": 124.086985
  },
  {
    "name": "Maymatan",
    "type": "government",
    "lat": 13.714066,
    "lon": 123.469461
  },
  {
    "name": "Mercedes Barangay Hall",
    "type": "government",
    "lat": 13.015318,
    "lon": 123.724659
  },
  {
    "name": "Mercedes Municipal Disaster Risk Reduction and Management Office",
    "type": "government",
    "lat": 14.111112,
    "lon": 122.999746
  },
  {
    "name": "Mercedes Municipal Health Office",
    "type": "government",
    "lat": 14.109923,
    "lon": 123.009129
  },
  {
    "name": "Migabod Barangay Hall",
    "type": "government",
    "lat": 12.994789,
    "lon": 123.654578
  },